Global Property ID;Source Property ID;Global Property Name;Global Chain Code;Property Address 1;Property Address 2;Primary Airport Code;Property City Name;Property State/Province;Property Zip/Postal;Property Country Code;Property Phone Number;Property Fax Number;Sabre Property Rating;Property Latitude;Property Longitude;Source Group Code
100416694;69083;Honeysuckle Executive Apartmen;GD;14 Honeysuckle;;SYD;Newcastle;NSW;2300;AU;61-2-49555888;61-2-49555888;4.0;-32.926201;151.770225;SABRE_GDS
100001502;102065;Alpine Motor Inn;GD;197 Great Western Highway;;SYD;Katoomba;NSW;2780;AU;61-2-47822011;61-2-47822053;;-3.370671;15.031743;SABRE_GDS
100464470;321896;Burnett Riverside Hotel;GD;7 Quay St;;BDB;Bundaberg Central;QLD;4670;AU;61-7-41558777;61-7-41558777;;-24.863501;152.352161;SABRE_GDS
100204800;317800;Deep Blue Hotel And Hot Springs;GD;16 Worm Bay Road;;WMB;Warrnambool;VIC;3280;AU;61-3-55592000;;4.0;-38.396427;142.473432;SABRE_GDS
102113159;610931;Wildlife Retreat At Taronga;GD;2a Bradleys Head Rd;;SYD;Mosman;NSW;2088;AU;61-2-99324888;;;-33.843367;151.244057;SABRE_GDS
102177957;389508;Alloggio Thornton;GD;21 Poynton Place;;NTL;Thornton;NSW;2322;AU;61-2-40365060;61-2-40365060;3.0;-327.735;15.164091;SABRE_GDS
100037660;162760;Spicers Balfour Hotel;GD;37 Balfour Street;;BNE;New Farm;QLD;4005;AU;61-7-3358-8888;;;-2.746388;153.040406;SABRE_GDS
100249656;415870;Discovery Parks - Cradle Mt;GD;3832 Cradle Mountain Road;;DPO;Cradle Mountain;TAS;7306;AU;61-3-64921395;61-3-64921438;3.0;-4.158137;14.593708;SABRE_GDS
100020240;137581;Quest Moorabbin;GD;3 Kingston Road;;MBW;Heatherton;VIC;3202;AU;61-3-99818900;61-3-99818999;;-37.953223;145.079758;SABRE_GDS
100300270;443030;Discovery Parks - Robe;GD;70 Esplanade;;MGB;Robe;SA;5276;AU;61-8-87682237;61-8-87682730;3.0;-37.164113;13.978335;SABRE_GDS
102942673;614714;Quest Bairnsdale;GD;9 Dalmahoy St;;BJS;Bairnsdale;VIC;3875;AU;1800-334-033;;;-37.828432;147.633084;SABRE_GDS
100811473;187998;Astra Sydney Cbd;GD;355 To 365 Kent St;;SYD;Sydney;NSW;02000;AU;61-1300797321;;4.0;-3.386889;15.120455;SABRE_GDS
100619448;611498;Eureka Tower;GD;7 Riverside Quay;;MEL;Southbank;VIC;3006;AU;61-08-6064300;61-08-6064300;;-37.821334;144.964698;SABRE_GDS
101033998;387846;Hobart City Apartments;GD;80 Elizabeth Street;;HBA;Hobart;TAS;7000;AU;61-3-62405585;;4.0;-4.288123;14.732619;SABRE_GDS
100238538;410039;Charlestown Executive Apartments;GD;45-47 Dickinson Street;;NTL;Charlestown;NSW;2290;AU;61-2-49416688;6-124-942-3433;3.0;-3.296513;151.698135;SABRE_GDS
102697661;606772;Abode Phillip;GD;6 Furzer Street;;CBR;Phillip;ACT;2606;AU;61-02-62200120;;;-35.340918;149.083709;SABRE_GDS
102323109;396722;Urban Rest - Mulwarree Avenue;GD;9 Mulwarree Ave;;SYD;Randwick;NSW;2031;AU;61-2-72022327;;4.0;-3.390758;15.123598;SABRE_GDS
100193620;311994;Quest Macquarie Park;GD;71 Epping Road;;SYD;Sydney;NSW;2113;AU;61-2-88794600;61-2-88794699;4.0;-3.378822;15.112676;SABRE_GDS
100243884;611629;Kingsford The Barossa;GD;68 Kingsford Road;;ADL;Kingsford;SA;5118;AU;61-8-85248120;61-8-85248120;;-34.548888;138.796689;SABRE_GDS
100206592;318890;Quest Midland;GD;3 The Crescent;;PER;Midland;WA;6056;AU;61-8-61483900;;4.0;-3.188898;11.600398;SABRE_GDS
100700730;383730;Astra Apartments Glen Waverley At O'sullivan Road;GD;52-54 O'sullivan Road;;MEL;Melbourne;VIC;;AU;61432540728;;4.0;-3.787869;14.516496;SABRE_GDS
100809341;286241;Wattle Grove Motel;GD;610 Welshpool Road;;PER;WATTLE GROVE;WA;6107;AU;61-8-93591119;61-8-93591159;3.0;-32.006665;115.989431;SABRE_GDS
102270603;601485;Studios On King;GD;202 King Street;;NTL;Newcastle;NSW;2300;AU;61-2-45084009;61-2-45084009;;-3.292721;15.177575;SABRE_GDS
100027348;147086;Quest Bendigo Central;GD;228 Mccrae Street.;;BXG;Bendigo;VIC;3550;AU;61 3 5410 1300;61 3 5410 1399;4.0;-3.675231;14.428904;SABRE_GDS
100797449;177998;The Executive Inn Newcastle;GD;10 Rugby Road;;NTL;New Lambton;NSW;02305;AU;61-2-49351100;61-2-49351481;4.0;-32.920694;151.714714;SABRE_GDS
100384002;366847;Gidgee Inn;GD;48 Mcilwraith Street;;CNJ;Cloncurry;QLD;4824;AU;61-747421599;;4.0;-2.070707;14.052663;SABRE_GDS
101107716;614990;Cootamundra Caravan Park;GD;55 Mackay St;;SYD;Cootamundra;NSW;2590;AU;61-02-69421080;61-02-69421080;;-34.638704;148.021771;SABRE_GDS
100605090;325079;Mid City Hotel Ballarat;GD;19 Doveton St Nth;;AVV;Ballarat;VIC;3350;AU;61-3-53277588;;3.0;-3.756846;14.385381;SABRE_GDS
100245718;381746;City Centre Motel Armidale;GD;146 Dangar St;;ARM;Armidale;NSW;2350;AU;61-2-67722351;;;-30.516699;151.663623;SABRE_GDS
100350888;46828;Cotswold Gardens Armidale;GD;34 Marsh Street;Armidale Sw Au 2350;ARM;Armidale;NSW;2350;AU;61267728222;61-2-67725139;;-3.050659;15.167144;SABRE_GDS
100700782;387240;Urban Rest - Collins St Docklands;GD;888 Collins Street;;MEL;Melbourne;VIC;3008;AU;61383760813;;;-37.818995;144.954145;SABRE_GDS
100203080;316911;Quest Innaloo;GD;1 Sunray Drive;;PER;Innaloo;WA;6018;AU;61-861482600;61-3-86991555;4.0;-3.189562;11.580229;SABRE_GDS
102289045;601618;Reflections Wyangala Waters -;GD;2891 Reg Hailstone Way;;CWT;Wyangala;NSW;2808;AU;61-2-63450877;;2.0;-3.392454;14.894843;SABRE_GDS
100442780;319202;Quest Cannon Hill;GD;930 Wynnum Road;;BNE;Cannon Hill;QLD;4170;AU;61-7-35566000;61-3-86991555;4.0;-2.746812;15.308859;SABRE_GDS
102135001;386621;Sky One Apartments By Cllix;GD;545 Station Street;;MEL;Box Hill;VIC;3128;AU;61-3-70386777;;4.0;-37.819922;145.123013;SABRE_GDS
100036546;1589;Quest Geelong;GD;16 18 The Esplanade South;;GEX;Geelong;VIC;3220;AU;61352282000;61352282199;3.0;-3.813786;14.435425;SABRE_GDS
100208408;611628;Lilianfels Blue Mountains Reso;GD;5 19 Lilianfels Avenue;;SYD;Katoomba;NSW;2780;AU;61-2-47801200;61-2-47801200;5.0;-3.372935;150.309653;SABRE_GDS
100805547;280352;Quest Liverpool;GD;39 Scott Street;;SYD;Liverpool;NSW;2170;AU;61-2-87380800;61-2-87380899;;-33.925089;150.924902;SABRE_GDS
100259110;606840;City Centre Motel Kempsey;GD;95 Smith St;;PQQ;Kempsey;NSW;2440;AU;61-2-65627733;;;-31.076148;152.844442;SABRE_GDS
100055226;186984;Colmslie Hotel Suites And Conf;GD;;;BNE;Brisbane;QLD;04170;AU;61-7-33998222;61-7-33992947;;-27.466109;153.078677;SABRE_GDS
102270371;614993;Young Tourist Caravan Park;GD;17 Edward Street;;CBR;Young;NSW;2594;AU;61-02-63822190;61-02-63822190;2.0;-34.31;148.303056;SABRE_GDS
102942997;614715;Quest On Wickham Terrace;GD;375 Wickham Terrace;;BNE;Spring Hill;QLD;7000;AU;1-800-333-4033;;;-2.746373;153.020958;SABRE_GDS
100927277;608759;Discovery Parks - Moama Waters;GD;96 Old Barmah Road;;ECH;Moama;NSW;2731;AU;61-3-54807717;;2.0;-36.111258;144.791457;SABRE_GDS
100183568;305679;Discovery Parks Lake Bonney;GD;;;MQL;Barmera;SA;5345;AU;1-800-094828;61-8-858-81974;3.0;-34.251098;140.453618;SABRE_GDS
102643751;606972;Haberfield Hotel;GD;215-217 Parramatta Road;;SYD;Haberfield;NSW;2045;AU;02-8111-8000;02-8111-8000;;-33.878108;151.131034;SABRE_GDS
100256820;391728;Santa Fe Motel;GD;8 Byron Street;;BNK;Lennox Head;NSW;2478;AU;61-2-66877788;61-2-66877788;3.0;-2.879313;15.359206;SABRE_GDS
102415703;397901;Quest Watergardens;GD;451 Kings Rd;;MEL;Taylors Lake;VIC;3038;AU;61-3-73036000;;4.0;-37.698692;144.779988;SABRE_GDS
100202158;316455;Spicers Sangoma Retreat;GD;70 Grandview Lane;;SYD;Bowen Mountain;NSW;2753;AU;61-2-45722592;;5.0;-33.582561;150.633394;SABRE_GDS
102643717;607061;Kula Wollongong;GD;35 Atchinson St;;WOL;Wollongong;NSW;2500;AU;61-2-72537020;;4.0;-34.428444;150.890673;SABRE_GDS
100204750;317773;Rockingham Apartments-spinnakers;GD;61 Rockingham Beach Rd;;PER;Rockingham;WA;6168;AU;61-419444787;;4.0;-3.227323;1.157343;SABRE_GDS
100223614;40166;Sandown Regency;GD;447 Princess Highway;;MEL;Noble Park;VIC;03174;AU;61-395-483444;61-395-482520;3.0;-37.955489;145.180291;SABRE_GDS
101109950;602881;291 On King;GD;;;NTL;Newcastle;NSW;2300;AU;1800 291 291;1800 291 291;;-32.928491;151.768017;SABRE_GDS
100244936;413465;Biloela Countryman;GD;75 83 Burnett Highway;;ROK;Biloela;QLD;4564;AU;61-7-49921488;6-174-992-2445;;-2.440983;150.517291;SABRE_GDS
100183256;305489;Discovery Holiday Parks Clare;GD;Lot 136 Main North Rd;;ADL;Clare;SA;5453;AU;61-8-88422724;61-8-8842-3447;4.0;-33.841195;138.616289;SABRE_GDS
100027072;146667;Avonmore On The Park;GD;34 The Avenue;;SYD;Randwick;NSW;2031;AU;61-293-999388;61-293-999488;4.0;-3.391239;15.124129;SABRE_GDS
100315780;45095;Rowville International Hotel;GD;1233 Stud Rd;;MEL;Rowville;VIC;3178;AU;61-3 9764 5050;61-3 9764 5148;;-3.793035;14.523305;SABRE_GDS
100913591;327867;Astra Macquarie Park;GD;1 Saunders Close;;SYD;Macquarie Park;NSW;2113;AU;61-419-635-822;;3.0;-33.779323;151.115244;SABRE_GDS
100632449;606422;Premier Mill Hotel;GD;;;PER;Katanning;WA;6317;AU;61-08-65003950;;;-3.369118;117.555082;SABRE_GDS
100218058;38292;Quest Savoy;GD;38 Elizabeth Street;;HBA;Hobart;TAS;7000;AU;61-3-62202300;61-3-62240997;4.0;-4.288232;14.732895;SABRE_GDS
100394406;53821;Quest Trinity House;GD;149 Brooker Avenue;;HBA;Hobart;TAS;7000;AU;61362369656;61362369655;;-4.287319;1.473259;SABRE_GDS
100055094;186881;Ikon Hotel;GD;22 Mount St;;BWT;Burnie;TAS;07320;AU;61-364-324566;61-364-319116;4.0;-41.050899;145.905278;SABRE_GDS
100010974;118002;Kennedy Drive Airport Motel;GD;203 Kennedy Drive;;OOL;Tweed Heads;NSW;2485;AU;61-7-55369288;;4.0;-2.818752;15.351488;SABRE_GDS
100372708;47903;Heritage Motor Inn Corowa;GD;25 Edward St;;CWW;Corowa;NSW;2646;AU;61-2-60331800;61-2-60331800;;-36.001838;146.386436;SABRE_GDS
100054350;18617;Zebra Motel Coffs Harbour;GD;27 Grafton Street;;CFS;Coffs Harbour;NSW;2444;AU;61-2-66521588;;3.0;-30.299941;153.111632;SABRE_GDS
100262110;284799;Discovery Parks - Emerald Beac;GD;73 Fisherman's Drive;;CFS;Emerald Beach;NSW;2456;AU;61-2-66561521;;;-3.016792;15.318757;SABRE_GDS
100591768;607870;Discovery Resorts - Lake Argyl;GD;525 Lake Argyle Road;;KNX;Lake Argyle;WA;6743;AU;61-8-91687777;;;-16.112739;1.287403;SABRE_GDS
100249048;601730;Reflections Seal Rocks - Holid;GD;;;NTL;Seal Rocks;NSW;2423;AU;61-2-49976164;61-2-49976164;3.0;-3.243574;15.253247;SABRE_GDS
100448078;601651;Reflections Bonny Hills - Holi;GD;920 Ocean Drive;;PQQ;Bonny Hills;NSW;2445;AU;61-2-65855276;;3.0;-31.591759;152.840118;SABRE_GDS
102475925;603803;Ferntree Rainforest Lodge;GD;36 Camelot Close;;CNS;Cape Tribulation;QLD;4873;AU;61-7-40980000;;3.0;-1.608829;14.546038;SABRE_GDS
101082040;601244;Quest Woolooware Bay;GD;457 Captain Cook Drive;;SYD;Woolooware;NSW;2230;AU;1800-334-033;;5.0;-34.039469;15.114129;SABRE_GDS
102479515;604219;Urban Rest - Port Adelaide;GD;26 Jubilee St;;ADL;Port Adelaide;SA;5015;AU;61-2-72022327;;;-3.484269;13.850817;SABRE_GDS
100203544;317143;Quest Flemington Central;GD;1 Ascot Vale Road Flemington;;MEL;Melbourne;VIC;3031;AU;61 3 85958880;61 3 8595 8881;4.0;-3.778681;14.492134;SABRE_GDS
100233054;407077;Discovery Parks - Moama West;GD;;;ECH;Moama;NSW;2731;AU;61-3-54825500;61-3-54809358;3.0;-36.105232;144.730185;SABRE_GDS
100929091;327734;Holiday Inn Express Sydney Airport;HI;2 12 Sarah Street;;SYD;Mascot;NSW;2020;AU;61-02-92376900;61-02-92471875;4.0;-339.304;15.118566;SABRE_GDS
102266401;393307;Holiday Inn Express Melbourne Little Collins;HI;589-599 Little Collins Street;;MEL;Melbourne;VIC;3000;AU;61-3-90599059;;4.0;-3.781786;14.495508;SABRE_GDS
100042206;16865;Peppermill Inn;HO;7900 Goulburn Valley Highway;;MEL;Kialla;VIC;03631;AU;61-03-58231800;61-1-11111111;3.0;-3.641999;14.539137;SABRE_GDS
100581390;284833;Lanai Riverside Apartments;HO;20 River St;;MKY;Mackay;QLD;4740;AU;61-7-49574401;61-7-49574402;4.0;-21.138447;149.182059;SABRE_GDS
100021534;13949;Hotel Bruce County;HO;445 Blackburn Road;;MEL;Mt Waverley;VIC;03149;AU;61-3-88058400;61-3-98879284;4.0;-3.789288;14.514432;SABRE_GDS
100204175;284701;Mackay Seabreeze Apartments;HO;14 Scawfell Avenue;;MKY;Mackay;QLD;04740;AU;61-7-49551644;61-7-49551644;4.0;-2.107706;14.922561;SABRE_GDS
102497027;605181;M Hotel;HO;91 York Street;;MEL;Sale;VIC;03850;AU;61-3-51441444;61-3-51441444;4.0;-3.811067;14.706831;SABRE_GDS
100604160;327811;Margaret River Motel;HO;18 Farrelly Street;;BQB;Margaret River;WA;06285;AU;61-8-97573177;;;-3.395313;11.506994;SABRE_GDS
100231766;406361;North Pier Hotel;HO;5 The Esplanade;;MEL;Cowes;VIC;3922;AU;61-3-5951-4488;61-3-59522316;3.0;-38.448203;145.241503;SABRE_GDS
100234504;40785;Medusa;HO;267 Darlinghurst Road;;SYD;Sydney;NSW;02010;AU;61-2-93311000;61-2-93806901;4.0;-3.387769;15.122032;SABRE_GDS
100158144;283159;Yarra Gables Motel;HO;55 Maroondah Highway;;MEL;Healesville;VIC;03777;AU;61-3-59621323;61-3-59621323;4.0;-37.664059;145.513245;SABRE_GDS
100380700;376795;Cardwell At The Beach;HQ;215 Victoria St;;PMK;Cardwell;QLD;4849;AU;61740668500;61740668028;3.0;-182.577;14.601801;SABRE_GDS
100250946;379085;Beach House Motel;HQ;66 The Strand;;TSV;North Ward;QLD;4810;AU;61747211333;61747716893;;-1.924896;14.681344;SABRE_GDS
100380624;365788;Ultiqa Beach Haven At Broadbeach;HQ;1 Albert Avenue;;OOL;Broadbeach;QLD;4218;AU;61755703888;61755703175;4.0;-2.802766;15.343328;SABRE_GDS
100254710;341141;Charlton Apartments;HQ;451 452 Charlton Esplanade;;HVB;Hervey Bay;QLD;4655;AU;61741948200;6107 4125 1221;;-2.528378;15.287663;SABRE_GDS
100233948;343912;Tokemata Retreat;HQ;100 Cemetery Rd;;ABX;Cobram East;NSW;3644;AU;61358735332;61358735332;4.0;-359.585;14.571419;SABRE_GDS
100254724;362871;La Vida On Anzac;HQ;41 Anzac Avenue;;BNE;Redcliffe;QLD;4020;AU;61738974700;61738974799;4.0;-2.723107;15.311295;SABRE_GDS
102116767;350285;Darwin Waterfront Luxury Suites;HQ;19 Kitchener Street;;DRW;Darwin;NT;801;AU;61889218833;61889218833;4.0;-1.246719;13.084546;SABRE_GDS
100280204;380222;Redearth Motel;HQ;469 Argent Street;;BHQ;Broken Hill;NSW;2880;AU;61880885694;61.;4.0;-3.195551;1.414709;SABRE_GDS
100285482;385006;Moura Meridian Motel;HQ;29 Dawson Highway;;THG;Moura;QLD;4718;AU;61749976100;61749972902;4.0;-2.457082;14.997047;SABRE_GDS
100230374;336472;Outrigger Resort;HQ;2007 Gold Coast Highway;;OOL;Burleigh Heads;QLD;4220;AU;61755351111;61755763370;;-280.752;15.344535;SABRE_GDS
100250026;378758;Mcnevins Warwick Motel;HQ;;;OKY;Warwick;QLD;4370;AU;61746615588;61746615569;;-2.822589;15.201888;SABRE_GDS
100248674;357507;Beachside Apartments;HQ;537 Nepean Highway;;MBW;Bonbeach;VIC;3196;AU;61397726516;61397722532;4.0;-38.063469;145.119547;SABRE_GDS
100230892;380166;Ivory Palms Resort;HQ;73 Hilton Terrace;;MCY;Noosaville;QLD;4566;AU;61754731700;61754741922;4.0;-2.639842;1.530495;SABRE_GDS
100380684;385041;Tinaroo Resort;HQ;29 Palm Street;;CNS;Tinaroo;QLD;4872;AU;61740958912;61740958912;4.0;-1.716865;14.555149;SABRE_GDS
100243092;385246;Milton Village Motel;HQ;;;MYA;Milton;NSW;2538;AU;61244551944;61244553244;;-3.533134;15.045008;SABRE_GDS
100250660;379725;Buckaroo Motor Inn;HQ;86 Wood Street;;OKY;Warwick;QLD;4370;AU;61746613755;61746618099;;-2.821941;15.202325;SABRE_GDS
101086196;345339;Novotel Lake Crackenback Resort Spa;HQ;1650 Alpine Way Crackenback;;OOM;JINDABYNE;NSW;2627;AU;61264513000;61264561008;4.0;-36.439917;148.517944;SABRE_GDS
100274904;380456;Kallangur Motel;HQ;1517 Anzac Avenue;;BNE;Kallangur;QLD;4503;AU;61738862366;61738862366;3.0;-2.725049;15.300092;SABRE_GDS
100280068;352351;Esperance Beachfront Resort;HQ;19 The Esplanade;;EPR;Esperance;WA;6450;AU;61890712513;61890712325;;-3.385636;12.189765;SABRE_GDS
100247672;341636;Seascape Retreat;HQ;185 Old Coach Road;;ADL;Victor Harbor;SA;5211;AU;61409584901;61.;5.0;-3.546421;13.863072;SABRE_GDS
100584618;341978;Taihoa Holiday Units;HQ;24 Kennedy Esplanade;;PMK;Mission Beach;QLD;4852;AU;61740689446;61740689446;;-17.946913;146.091229;SABRE_GDS
100041227;369440;King Reef Resort;HQ;75 Jacobs Road;;CNS;Kurrimine Beach;QLD;4871;AU;61740656144;61740656172;;-1.778188;14.610118;SABRE_GDS
100032900;152306;Aspect Tamar Valley Resort;HQ;7 Waldhorn Drive.;;LST;Grindelwald;TAS;7277;AU;61363300400;61363301607;4.0;-4.135122;14.700475;SABRE_GDS
100258524;373300;Koola Beach Apartments Bargara;HQ;52 Johnson Street;;BDB;Bargara;QLD;4670;AU;61741301300;61741301301;;-2.481043;15.245648;SABRE_GDS
100383882;341775;Hermitage Motel;HQ;62 68 Maitland Road;;NTL;Muswellbrook;NSW;2333;AU;61265431188;61265431486;3.0;-3.227958;15.089922;SABRE_GDS
100234272;357015;Aza Motel;HQ;114 Keen Street;;LSY;Lismore;NSW;2480;AU;61266219499;61266221554;;-2.880891;1.532793;SABRE_GDS
100231540;342073;Nrma Sydney Lakeside Holiday Park;HQ;38 Lake Park Road;;SYD;North Narrabeen;NSW;2101;AU;612 9913 7845;612 9970 6385;;-3.370229;15.130466;SABRE_GDS
102173797;385313;Must At Coonawarra;HQ;126 Church St;;MGB;Penola;SA;5277;AU;61887373444;61887373644;;-3.736824;14.083925;SABRE_GDS
100243012;362193;Siesta Villa Motel;HQ;104 Glenlyon Street;;GLT;Gladstone;QLD;4680;AU;61749724922;61749724576;3.0;-2.384759;15.125641;SABRE_GDS
100251172;361263;Pavillions On 1770 Agnes Waters;HQ;4 Beaches Village Circuit;;GLT;Agnes Water;QLD;4677;AU;61749021000;61749747408;;-2.419697;151.898347;SABRE_GDS
100115445;341233;Regatta Riverfront Apartments;HQ;221 - 227 Gympie Terrace;;MCY;Noosa;QLD;4566;AU;61754490522;61754490909;4.0;-263.976;15.306444;SABRE_GDS
100234098;373501;The Seahorse Inn;HQ;;;MIM;Eden;NSW;2551;AU;61264961361;61264964211;4.0;-3.710509;14.987695;SABRE_GDS
100381106;348155;Heritage Resort Weipa;HQ;55 Commercial Avenue;;WEI;Weipa;QLD;4874;AU;61740698000;61740698011;3.0;-126.387;14.186362;SABRE_GDS
100242714;353693;Narellan Motor Inn;HQ;2-5 The Old Northern Road;;SYD;Narellan;NSW;2567;AU;61246461044;61246461429;3.0;-3.404016;15.073505;SABRE_GDS
100253422;361061;Fox Glenn Motor Inn;HQ;30 Nicholls Road;;MCY;Gympie;QLD;4570;AU;61754823199;61754828468;3.0;-2.621313;15.268066;SABRE_GDS
100233116;346664;Villa Della Rosa;HQ;5 Platt Place;;OOL;North Tamborine;QLD;4272;AU;61755453375;61755453375;;-2.791906;15.317426;SABRE_GDS
100233716;359284;Fiori Apartments;HQ;13 15 Hassall Street;;SYD;Parramatta;NSW;2150;AU;61298060800;61298060205;3.0;-3.381841;15.100862;SABRE_GDS
100249536;329080;Red Bridge Motor Inn;HQ;380 Nambour Connection Road;;MCY;Sunshine Coast;QLD;4559;AU;61754423933;61754423922;4.0;-2.665774;15.296918;SABRE_GDS
100500452;345410;Apartments Melbourne Domain - South Melbourne;HQ;50 Albert Road;;MBW;South Melbourne;VIC;3205;AU;61396003652;61396003652;;-3.783415;1.449714;SABRE_GDS
100284906;335805;Metro Motel;HQ;110 - 116 George Street;;ROK;Rockhampton;QLD;4700;AU;61748076550;61748076550;;-2.337956;15.050423;SABRE_GDS
100602832;341119;One Mile Beach Holiday Park;HQ;426 Gan Gan Road;;NTL;One Mile Beach;NSW;2316;AU;492 4982 1047;492 4982 2832;3.0;-32.776437;152.113515;SABRE_GDS
100255584;384955;Charm City Motel;HQ;23 Takalvan Street;;BDB;Bundaberg;QLD;4670;AU;61741522284;61741531506;;-2.487292;15.233296;SABRE_GDS
100380898;349096;Villawood Hotel;HQ;924 Woodville Road;;SYD;Villawood;NSW;2163;AU;61297244231;61297541480;3.0;-3.388604;1.509745;SABRE_GDS
100231632;341065;Apartments On Lygon;HQ;700 Lygon Street;;MBW;Melbourne;VIC;3054;AU;61393453888;61393491250;;-37.789617;144.969047;SABRE_GDS
100250190;351824;Apple And Grape Motel;HQ;63 Maryland Street;;LSY;Stanthorpe;QLD;4380;AU;61746811288;61746813855;;-286.589;15.193419;SABRE_GDS
100012320;12017;Intercontinental Brisbane;IC;190 Elizabeth Street;;BNE;Brisbane;;4001;AU;61-7-3234-2000;61-7-3231-3199;5.0;-2.746915;15.302704;SABRE_GDS
100041404;16768;Intercontinental Sanctuary Cove Resort;IC;Manor Circle Po Box 200.;;BNE;Sanctuary Cove;;4212;AU;61-7-5530 1234;61-7-5577-8234;5.0;-2.785299;15.335968;SABRE_GDS
102929311;613837;Hotel Indigo Little Collins;IN;288 Little Collins Street Blgd;;MEL;Melbourne;VIC;3000;AU;61-0421-089488;;;-37.814812;144.964863;SABRE_GDS
100213334;35334;Pelican Beach Resort Australis;IQ;;;CFS;Coffs Harbour;;2450;AU;02-66537000;02-66537066;;-30.247395;153.142821;SABRE_GDS
100413500;66964;Sheraton Motor Hotel;LM;40 Macleay St.;;SYD;Potts Point;;2011;AU;612-358-1955;612-356-2005;;-3.387052;15.122529;SABRE_GDS
102592345;606353;Punthill Tuggeranong;LM;205 Anketell Street;;CBR;Greenway;ACT;2900;AU;;;;-35.416192;149.068574;SABRE_GDS
100419488;71545;Punthill Essendon;LM;1142 Mount Alexander Rd;;MEL;Essendon;;3040;AU;61-3-99168888;61-3-99168899;;-3.774431;14.491056;SABRE_GDS
100179782;29957;Hotel Grand Chancellor Hobart;LM;1 Davey Street;;HBA;Hobart;TAS;07000;AU;61-3-62354535;61-3-62238175;;-4.288068;14.733368;SABRE_GDS
100132005;319958;Punthill Ivanhoe;LM;21 Bell Street;;MEL;Ivanhoe;VIC;3079;AU;61-03-9916-8888;61-03-9916-8899;4.0;-37.755;14.505612;SABRE_GDS
102587837;606355;Punthill Sunshine;LM;81 Derby Road;;MEL;Sunshine;VIC;3020;AU;;;;-37.790843;144.832897;SABRE_GDS
100009284;114962;Punthill South Yarra Grand;LM;7 Yarra Street;;MEL;SOUTH YARRA;;3141;AU;61 3 99168800;61-3-99168899;4.0;-3.783859;14.499258;SABRE_GDS
101082058;601022;Punthill Parramatta;LM;404 Church Street;;CDU;Parramatta;NSW;2150;AU;61 2 7813 4888;;;-3.380786;15.100553;SABRE_GDS
100541354;41043;The Peninsula;LM;53 South Perth Esplanade;;PER;South Perth;;6151;AU;61-8-93686688;61-8-93686689;4.0;-3.197061;11.585068;SABRE_GDS
100364656;4751;Melbourne Marriott Hotel;MC;;;MEL;Melbourne;VIC;3000;AU;61-3-96623900;61-3-96634297;5.0;-3.781018;14.496963;SABRE_GDS
100428708;81340;Oaks Brisbane Festival Suites;OH;108 Albert Street;;BNE;Brisbane;QLD;4000;AU;61-7-30278800;61-7-30128885;4.0;-274.716;15.302665;SABRE_GDS
100078730;21795;Oaks Sydney Hyde Park Suites;OH;38 College Street;;SYD;Sydney;NSW;2010;AU;61-2-83020890;61-2-93316022;4.0;-3.387659;15.121224;SABRE_GDS
100432948;85660;Oaks Ipswich Aspire Suites;OH;1 West Street Woodend;;BNE;Ipswich;QLD;4305;AU;61-7-32805100;61-7-32805199;4.0;-27.612723;152.757519;SABRE_GDS
100397556;55885;Oaks Waterfront Suites;OH;89 The Entrance Road Via Duffy.;;SYD;The Entrance;;02261;AU;61-2-43348000;61-2-43346094;4.0;-3.334023;15.149847;SABRE_GDS
100101438;23562;Oaks Oasis Resort;OH;2 Landsborough Parade;;MCY;Caloundra;QLD;4551;AU;61-7-54910333;61-7-54910300;4.0;-26.806792;153.122058;SABRE_GDS
102261525;392172;Oaks Geelong Suites;OH;10 Bellerine Street;;MEL;Geelong;VIC;03220;AU;61-1300-459044;;4.0;-38.147953;144.365844;SABRE_GDS
100472244;606675;Birch Motel Bowen;OI;18512 Bruce Highway;;ZBO;Bowen;QLD;4805;AU;61-07-47862499;;;-2.003178;14.821579;SABRE_GDS
100159590;284089;L Amor Holiday Apartments;OI;100 Scenic Highway;;ROK;YEPPOON;QLD;4703;AU;0061-7-49336255;0061-7-49336661;4.0;-2.315763;15.076735;SABRE_GDS
100475586;307589;Alice On Todd;OI;5 Strehlow Street;;ASP;ALICE SPRINGS;NT;0870;AU;0061-8-89538033;;3.0;-23.714722;133.875229;SABRE_GDS
102257181;391933;Springs Newcastle;OI;4 Tyrrell Street Wallsend;;NTL;NEWCASTLE;NSW;2287;AU;61-2-49499999;;;-3.290106;15.167092;SABRE_GDS
100243118;412526;Hunter Morpeth Motel And Villas;OI;28 Raworth Avenue.;;NTL;Raworth;NSW;2321;AU;61-249333750;6-124-933-5798;;-3.273005;15.161508;SABRE_GDS
100420052;394228;Beachside Motor Inn;OI;298 Charlton Esplanade;;HVB;PIALBA;QLD;4655;AU;61-7-41241999;;;-2.528091;15.284342;SABRE_GDS
100080574;219755;Portobello Resort Apts;OI;2607 Gold Coast Highway;;OOL;Broad Beach;QLD;4218;AU;0061-7-5538-7355;0061-7-5592-5169;3.0;-28.036872;153.432224;SABRE_GDS
100243448;412699;Collie Ridge Resort;OI;185-195 Throssell Street;;BQB;Collie;WA;6225;AU;6-189-734-6666;6-189-734-6600;4.0;-3.335719;11.614398;SABRE_GDS
100182960;389003;Kobbers Motor Inn;OI;37a Nicholson Street;;TWB;DALBY;QLD;4405;AU;61-7-46697488;61-7-46697477;4.0;-2.717998;1.512578;SABRE_GDS
100245648;614632;The Sands Resort Yamba;OI;20/21 Pacific Parade;;GFN;Yamba;NSW;2464;AU;61-02-66469440;;;-29.444687;153.364008;SABRE_GDS
102280389;394466;Inspire Boutique Apartments;OI;677 Ruthven Steet;;WTB;TOOWOOMBA;QLD;4350;AU;61-7-46417997;;4.0;-2.757308;1.519509;SABRE_GDS
102416757;396443;Kempsey Power House Motel;OI;465 Macleay Valley Way;;PQQ;South Kempsey;ACT;2440;AU;61 2 6562 6988;;2.0;-3.111417;15.283064;SABRE_GDS
100588948;611090;Sovereign On The Gold Coast;OI;138 Ferny Ave;;OOL;Surfers Paradise;QLD;4217;AU;61 07 5579 3888;;4.0;-27.992206;15.342772;SABRE_GDS
100279052;364315;Longreach Motor Inn;OI;84 Galah Street;;LRE;Longreach;QLD;4730;AU;61-07-46582322;;;-2.344161;14.425219;SABRE_GDS
100251562;610753;Moonlight Bay Apartments;OI;4 Napier Street;;MEL;Rye;VIC;3941;AU;61747707296;;4.0;-38.370913;144.821812;SABRE_GDS
100254656;606584;Rockpool Motor Inn South West Rocks;OI;45 Mcintyre St;;PQQ;South West Rocks;NSW;2431;AU;61-02-65667755;;4.0;-30.888746;153.045437;SABRE_GDS
100060874;197057;Mid City Motor Lodge;OI;245 Lords Place;;OAG;Orange;NSW;2800;AU;61-026-3621600;61-026-3631714;3.0;-3.328233;14.910076;SABRE_GDS
100456192;389357;Highfields Motel;OI;10552 New England Highway;;TWB;Toowoomba;ACT;4352;AU;61-7-46996996;61-7-46996997;4.0;-2.746606;1.519512;SABRE_GDS
100310518;382259;Civic Motel Grafton;OI;153 Pound Street;;GFN;GRAFTON;NSW;2460;AU;61-2-66424278;;;-2.968806;15.293175;SABRE_GDS
100082180;221026;Byron Quarter;OI;8 Byron St;;BNK;Byron Bay;NSW;2481;AU;61-2-6680 9900;;4.0;-28.644106;153.614297;SABRE_GDS
100246902;601648;Allara Motor Lodge;OI;569 Napier Street;;BXG;Bendigo;VIC;3550;AU;61 03 5448 4700;;;-3.672335;1.443111;SABRE_GDS
100486568;312893;Farnham Court Motel Morwell;OI;26 30 Princes Drive;;TGN;MORWELL;VIC;3840;AU;0061-3-51346544;0061-3-51346878;4.0;-38.240991;146.413645;SABRE_GDS
100196954;610360;Junee Motor Inn;OI;61 Broadway;;WGA;Junee;NSW;2663;AU;61-02-69241266;;;-34.866117;147.580408;SABRE_GDS
100242114;383130;Ben Hall Motor Inn;OI;5-7 Cross St;;FRB;FORBES;NSW;2871;AU;61-2-68512345;61-2-68511654;3.0;-3.338334;14.801083;SABRE_GDS
100546176;324394;Mariners North Holiday Apartments;OI;7 Mariners Drive;;TSV;Townsville;QLD;4810;AU;61-747-220777;61-747-220700;;-1.925228;14.682121;SABRE_GDS
100267264;352747;Cosmo Motel Adamstown;OI;165 Brunker Road;;NTL;Adamstown;NSW;2289;AU;61-2-49527111;;3.0;-3.293159;15.172756;SABRE_GDS
100060589;505576;Richmond Motor Inn;OI;227 River Street;;BNK;Ballina;NSW;2478;AU;61-0266869100;61-0266869111;;-2.886903;1.535578;SABRE_GDS
100181707;606372;Cooktown Motel;OI;9 Boundary Street;;CTN;Cooktown;QLD;4895;AU;61-07-40695166;;;-15.475792;145.248093;SABRE_GDS
100248242;415155;Atlas Motel;OI;140 Bourke Street;;DBO;Dubbo;NSW;2830;AU;6-126-882-7244;6-126-882-7751;;-3.225313;1.486083;SABRE_GDS
100331838;615292;Motel Goolwa;OI;30 Cadell St;;ADL;Goolwa;SA;5214;AU;61 08 8555 1155;;3.0;-35.500282;138.781738;SABRE_GDS
100241148;411438;7th Street Motel;OI;153 Seventh Street;;MQL;Mildura;VIC;3500;AU;6-135-021-1888;;;-3.418163;14.216191;SABRE_GDS
100205140;317984;Golden Heritage Accommodation;ON;51 Sydney Road;;ABX;Beechworth;ACT;3747;AU;61 3 57281500;61 3 57282119;;-3.634835;14.668831;SABRE_GDS
100546182;80802;Sapphire City Motor Inn;ON;34 Glen Innes Road;;TMW;Inverell;NSW;02360;AU;0061267222500;;;-2.977971;15.112011;SABRE_GDS
100256130;419254;St Georges Motor Inn;ON;334 St Georges Road;;MEL;Thornbury;VIC;3071;AU;61 3 94168233;61 3 94169707;3.0;-37.759178;144.993454;SABRE_GDS
100581060;414438;Spa Village Travel Inn;ON;304 Warialda Street;;MRZ;Moree;NSW;2400;AU;61 2 67524033;61 4 05005083;3.0;-2.947224;14.984585;SABRE_GDS
102966925;615176;Metawisebnb Cozy Studio On Dixon;ON;2 To 8 Dixon St;;SYD;Sydney;;2000;AU;0061423343868;;;-33.876578;151.203972;SABRE_GDS
100533462;492738;Pinjarra Resort;ON;55 Mclarty Road;;PER;Pinjarra;WA;6208;AU;61 8 95311811;;3.0;-32.637009;115.870247;SABRE_GDS
100246012;603143;White Gums Motor Inn;ON;;;BNE;Chinchilla;;4413;AU;0061746691560;;4.0;-2.674026;15.063127;SABRE_GDS
100425364;78055;Pullman Melbourne Albert Park;PU;65 Queens Road;;MEL;Melbourne;;3004;AU;61-3-95294300;61-3-95213111;5.0;-3.784992;14.497837;SABRE_GDS
100275130;42973;Quality Hotel Colonial Launceston;QI;31 Elizabeth St;;LST;Launceston;;7250;AU;61-3 6331 6588;61-3 6334 2765;4.0;-4.143946;14.714239;SABRE_GDS
100353462;46956;Quality Inn Carriage House;QI;;;WGA;Wagga Wagga;;2650;AU;61-2 6922 7374;61-2 6922 7346;;-3.512467;14.741933;SABRE_GDS
100365342;47543;Quality Inn Grafton;QI;51 Fitzroy Street;;GFN;Grafton;;2460;AU;61-2 6640 9100;61-2 6643 4622;3.0;-2.969366;15.293616;SABRE_GDS
100549618;317986;Quality Resort Parkhurst;QI;984 Yaamba Road;;ROK;PARKHURST;QLD;4701;AU;61-7-49363153;;4.0;-232.887;150.511406;SABRE_GDS
100461196;341278;Quality Inn O'connell;QI;197 199 O'connell Street;;ADL;Adelaide;SA;5006;AU;61882390766;61882390560;;-3.490279;13.859429;SABRE_GDS
100212318;34716;Quality Hotel Taylors Lake;QI;7 Melton Highway;;MEL;Taylors Lake;VIC;3038;AU;61-3 9217 9500;61-3 9390 9609;4.0;-3.770138;14.479828;SABRE_GDS
100034102;15355;Quality Parklake Hotel Shepparton;QI;481 Wyndham Street;;SHT;Shepparton;;3630;AU;61-3 5821 5822;61-3 5821 0894;4.0;-3.638693;14.539839;SABRE_GDS
100212166;34625;Quality Hotel Robertson Gardens;QI;281 Kessel Road.;;BNE;Nathan;QLD;4109;AU;61-7 3875 1999;61-7 3274 1428;4.0;-27.559511;153.054903;SABRE_GDS
100008810;114124;Ramada Hervey Bay;RA;627 Charlton Esplanade;;HVB;Hervey Bay;QLD;QLD 4655;AU;61-7-4197-0500;61-7-4197-0699;4.0;-2.529442;15.290665;SABRE_GDS
100016630;131300;Ramada Diplomat Canberra;RA;2 Hely Street Griffith;Act 2603;CBR;Canberra;ACT;02603;AU;61-262-952277;61-262-396432;4.0;-3.532218;14.914802;SABRE_GDS
100372562;323032;Ramada Brisbane Windsor;RA;16 Bryden Street;;BNE;Brisbane;QLD;04030;AU;61-733-573456;61-733-573466;;-2.743849;15.303159;SABRE_GDS
100026746;14626;Rydges Sydney Central;RG;28 Albion Street;;SYD;SURRY HILLS;NSW;2010;AU;61-2-92890000;61-2-92890003;;-3.388187;15.120957;SABRE_GDS
100074442;21261;Rydges Port Macquarie;RG;1 Hay Street;;PQQ;PORT MACQUARIE;NSW;2444;AU;61-2-65892888;61-2-65892899;4.0;-3.142826;15.290935;SABRE_GDS
100588608;17457;Mercure Albury;RT;579 Olive Street;;MEL;ALBURY;NSW;2640;AU;61-2-60216100;61-2-60216100;4.0;-3.607791;14.691813;SABRE_GDS
100159902;284290;Mercure Launceston;RT;3 Brisbane Street;;LST;LAUNCESTON;TAS;7250;AU;61-3-63312055;61-3-63343910;;-41.432576;147.145793;SABRE_GDS
100219518;39183;Adelaide Rockford;RT;164-hindley St;;ADL;ADELAIDE;SA;5000;AU;61-8-82118255;61-8-82311179;4.0;-3.492309;13.859288;SABRE_GDS
100396838;55384;Mantra Mooloolaba Beach;RT;;;MCY;Mooloolaba;;4557;AU;61-7-54522600;61-7-54522888;4.0;-26.679;15.311636;SABRE_GDS
100020752;138269;Mercure Melbourne Caroline Springs;RT;10 20 Lake Street.;;MEL;CAROLINE SPRINGS;VIC;3023;AU;61-03-83580555;61-03-86772559;4.0;-3.773244;14.474469;SABRE_GDS
100078874;218096;Peppers Soul Surfers Paradise;RT;8 The Esplanade;;OOL;Surfers Paradise;QLD;4217;AU;61756355700;61756355799;5.0;-28.001941;153.431059;SABRE_GDS
102281451;394508;Breakfree Raffertys Beach Resort;RT;1 Wild Duck Drive;;SYD;CAMS WHARF;NSW;2281;AU;61249725555;61249725253;3.0;-3.312117;15.161536;SABRE_GDS
100340811;322671;Novotel Melbourne Central;RT;399 Little Lonsdale Street;;MEL;MELBOURNE;VIC;3000;AU;61-3-99298888;61-3-99298858;;-3.781192;14.496009;SABRE_GDS
100574680;604715;Breakfree Acapulco Surfers Paradise;RT;2 Thornton Street;;OOL;SURFERS PARADISE;QLD;4217;AU;;61755922712;;-28.010626;153.431364;SABRE_GDS
100203574;317158;Novotel Melbourne South Wharf;RT;7 Convention Centre Place;;MEL;SOUTH WHARF;VIC;3006;AU;61-3-90580444;61-3-90580488;4.0;-37.825053;144.949844;SABRE_GDS
100432676;8534;Ibis Newcastle;RT;700 Hunter Street;;NTL;Newcastle;;2302;AU;61-2-49252266;61-2-49253377;;-3.292618;15.176327;SABRE_GDS
100797575;139682;Kingfisher Bay Resort Fraser Island;RT;;;HVB;Fraser Island;QLD;4655;AU;61-7-41949300;61-7-41949230;4.0;-2.539443;15.303418;SABRE_GDS
100002948;103972;Mantra Sirocco;RT;59 - 75 The Esplanade.;;MCY;MOOLOOLABA;;4557;AU;61-7-54441400;61-7-54441499;;-2.667955;15.311929;SABRE_GDS
100208088;32199;Mantra Hindmarsh Square;RT;55-67 Hindmarsh Square;;ADL;Adelaide;;5000;AU;61-8-84123333;61-8-84123344;4.0;-3.492503;13.860478;SABRE_GDS
100405550;61229;Ibis Styles Kingsgate Hotel;RT;131 King Street;;MEL;Melbourne;;3000;AU;61-3-96294171;61-3-96297110;3.0;-3.781703;14.495573;SABRE_GDS
100201176;315966;Ibis Styles Hobart;RT;173 177 Macquarie St;;HBA;HOBART;TAS;7000;AU;61-3-62898500;61-3-62898599;4.0;-42.886203;147.325714;SABRE_GDS
100012528;120565;Mantra French Quarter;RT;62 Hastings Street;;MCY;NOOSA;QLD;4567;AU;61-07-54307100;61-7-54748122;3.0;-2.638726;15.309284;SABRE_GDS
100391860;52082;Mercure Macquarie Park;RT;81 Talavera Road;;SYD;North Ryde;NSW;2113;AU;61-2-88745200;61-2-88745300;4.0;-33.772476;151.116993;SABRE_GDS
100209280;3291;Ibis Sydney Airport;RT;205 O Riordan Street;;SYD;Mascot;;2020;AU;61-2-83398500;61-2-83398585;;-3.392811;15.118679;SABRE_GDS
100036574;15906;Mercure Townsville;RT;;;TSV;Townsville;;4810;AU;61-7-47594900;61-7-47251384;4.0;-1.927108;1.467936;SABRE_GDS
100317510;45183;Mercure Blacktown;RT;170 Reservoir Rd;;SYD;Blacktown;NSW;2148;AU;61-2-88222000;61-2-96724904;4.0;-33.793716;15.089673;SABRE_GDS
100395908;54793;Mantra Legends Hotel;RT;;;OOL;Surfers Paradise;;4217;AU;61-7-55887888;61-7-55887885;;-28.004764;153.429501;SABRE_GDS
100085110;224619;Art Series - The Larwill;RT;48 Flemington Road;;MEL;Parkville;VIC;3052;AU;61-3-9032 9111;61-3-9032 9222;4.0;-3.779406;14.494828;SABRE_GDS
102252761;390619;Sofitel Adelaide;SB;108 Currie Street;;ADL;ADELAIDE;SA;5000;AU;61409679428;;5.0;-349.245;13.859559;SABRE_GDS
100019656;136764;Fairmont Resort Blue Mountains;SB;1 Sublime Point Road;;SYD;LEURA;ACT;2780;AU;61-2-47850000;61-2-47850001;4.0;-337.219;1.503502;SABRE_GDS
100196130;313320;Sage Brisbane James Street;SD;70 James Street;;BNE;Fortitude Valley;QLD;04006;AU;61-7-32223111;61-7-32219389;4.0;-27.457983;153.041669;SABRE_GDS
100404828;60772;Lakeside Hotel And Conference Centre;TA;99 Talavera Road;;SYD;MACQUARIE PARK;;2113;AU;61-2-98509300;61-2-98506090;;-3.377103;15.111618;SABRE_GDS
100023638;142508;Edgewater;TA;4 Thomas Street;;DPO;DEVONPORT;TAS;7310;AU;61-3-64278441;61-3-64277900;3.0;-4.117802;14.636679;SABRE_GDS
100421318;74026;Adina Wollongong;TD;19 Market St;;SYD;Wollongong;NSW;2500;AU;61-2-42505000;61-2-42505099;4.0;-3.442469;15.089961;SABRE_GDS
100428294;80940;Travelodge Melbourne Docklands;TD;66 Aurora Lane;;MEL;Docklands;VIC;3008;AU;61-3-86151000;61-3-86151099;4.0;-3.781904;144.950502;SABRE_GDS
100000724;10100;Hotel Kurrajong Canberra;TD;8 National Circuit;;CBR;Barton;ACT;2600;AU;61-2-62344444;61-2-62344466;;-353.075;14.913389;SABRE_GDS
100410796;6532;Adina Adelaide Treasury;TD;2 Flinders St;;ADL;Adelaide;SA;5000;AU;61-8-81120000;61-8-81120199;4.0;-3.492668;13.860091;SABRE_GDS
100093288;23055;Travelodge Hobart;TD;167 Macquarie Street;;HBA;Hobart;TAS;7000;AU;61-3-62207100;61-3-62344273;4.0;-428.856;14.732609;SABRE_GDS
100194250;312343;Club Wyndham Seven Mile Beach;TQ;78 Surf Road;;HBA;Seven Mile Beach;TAS;07170;AU;61-3-62486222;61-3-62486628;4.0;-4.285347;14.751176;SABRE_GDS
100680404;394588;Club Wyndham Kirra Beach;TQ;7 Winston Street;;OOL;Coolangatta;QLD;4225;AU;61-7-55906188;61-7-55906198;;-2.816747;15.352505;SABRE_GDS
100028506;14863;Hospitality Esperance, Surestay Collection By Best Western;UR;;;EPR;Esperance;WA;6450;AU;61-08-90711999;61-08-90713915;3.0;-3.386091;121.894;SABRE_GDS
100207618;31966;Voco Kirkton Park Hunter Valley;VX;336 Oakey Creek Road.;;SYD;Pokolbin;;2320;AU;61-2-49987680;61-2-49987775;4.0;-3.280849;15.130622;SABRE_GDS
102774567;610516;Tryp Southport;WT;59 Meron Street;;OOL;Gold Coast;QLD;4215;AU;61-07-56622200;00-00-0000000;4.0;-27.974498;153.412002;SABRE_GDS
100160282;284559;Hunter Gateway Motel;WV;11 Denton Park Drive.;;SYD;Rutherford;NSW;2320;AU;61-2-49377999;61-2-49377900;4.0;-3.270867;15.151747;SABRE_GDS
100511528;310412;Annexe Apartments;WV;9-11 Walden Lane.;;BNE;Brisbane;QLD;4006;AU;61731803700;61731803799;4.0;-2.744744;15.302975;SABRE_GDS
100039056;165017;Ocean View Motel;WV;10 Lawley St;;PER;North Beach;WA;6019;AU;61894479555;;3.0;-3.185453;11.575328;SABRE_GDS
100087590;226856;Avenue Hotel Canberra;WV;80 Northbourne Ave;;CBR;Canberra;ACT;2601;AU;61262469500;61262469599;5.0;-35.274687;149.130076;SABRE_GDS
100323254;390056;Nightcap At Waterfront Hotel;WV;2-46 David Low Way;;MCY;Diddillibah;QLD;4558;AU;61-0754-582777;00;;-266.422;15.304966;SABRE_GDS
100082492;221260;Nightcap At Wintersun Hotel;WV;441 Chapman Road;;GET;BLUFF POINT;WA;6530;AU;0061-8-99231211;00;;-28.735982;11.462439;SABRE_GDS
100185618;307246;Nightcap At Skyways Hotel;WV;113 Matthews Avenue;;MEL;Melbourne;VIC;3042;AU;61393381300;00;3.0;-37.712893;144.889723;SABRE_GDS
100431140;83654;Healing Dreams Retreat;WV;855 Trousers Point Road.;;FLS;Whitemark;;7255;AU;61-3-6359-4586;61-3-86779734;;-40.219488;148.045506;SABRE_GDS
100412934;6664;Yarra Valley Lodge;WV;2 Heritage Ave.;;MEL;Chirnside Park;VIC;3116;AU;61-3-97603333;61-3-97603333;;-3.772127;14.530223;SABRE_GDS
100632519;326538;Artel Apartment Hotel Melbourne;WV;756 Sydney Road;;MEL;Brunswick;VIC;3056;AU;61-03 9454 3863;61-39-0181120;4.0;-377.596;1.449636;SABRE_GDS
100203174;316963;Nightcap At Manhattan Hotel;WV;;;MEL;Melbourne;VIC;3134;AU;61-398-747777;00;3.0;-3.783236;14.521336;SABRE_GDS
100019046;136045;Cairns Central Plaza Apartment;WV;58-62 Mcleod Street;;CNS;CAIRNS;QLD;4870;AU;61-7-40816000;61-7-40816099;4.0;-1.692283;14.577134;SABRE_GDS
100396964;55464;Crown Promenade Melbourne;WV;8 Whiteman Street Southbank;;MEL;Melbourne;;3006;AU;61-3-9292 6688;61392926677;4.0;-3.782366;14.495889;SABRE_GDS
100262908;327700;Nightcap At St Albans Hotel;WV;5 Mckechnie Street;;MEL;St Albans;VIC;3021;AU;61-3-93662066;00;3.0;-3.774688;14.479954;SABRE_GDS
101066376;600074;The Strand Hotel;WV;99 William Street;;SYD;Darlinghurst;NSW;2021;AU;61290688527;;3.0;-338.743;15.121652;SABRE_GDS
100390206;285484;Oxford House;WV;21 Oxford Street;;SYD;Paddington;NSW;2021;AU;61290714750;;;-3.388286;15.122014;SABRE_GDS
100182800;305210;Mackay Oceanside Central Hotel;WV;2c East Gordon Street;;MKY;MACKAY;QLD;4740;AU;0756890388;;4.0;-2.114793;14.920212;SABRE_GDS
102266789;393574;Gladstone Downtown Central;WV;39-43 Bramston Street Gladston;;GLT;Gladstone;QLD;4680;AU;61 07 49710088;;;-238.466;15.125605;SABRE_GDS
100215840;369;The Ville Resort - Casino;WV;;Po Box 1223;TSV;Townsville;;4810;AU;61-7-47222333;61-7-47724741;;-192.588;146.814;SABRE_GDS
100773811;323321;United Places Botanic Gardens;WV;157 Domain Road South Yarra;;MEL;Melbourne;VIC;3141;AU;61398666467;61398666538;5.0;-3.783417;14.498145;SABRE_GDS
100197502;314024;Nightcap At Camp Hill;WV;724 Old Cleveland Road;;BNE;Brisbane;QLD;4152;AU;61733988844;00;;-27.493005;15.308331;SABRE_GDS
100705437;324943;Veriu Green Square;WV;18 Oriordan St;;SYD;Alexandria;NSW;2015;AU;61286693612;61286693612;;-33.907144;15.120176;SABRE_GDS
100204742;31777;Quay Perth Hotel;WV;18 The Esplanade;;PER;Perth;;6000;AU;61-8-93252000;;;-3.195611;11.585766;SABRE_GDS
100015372;127555;Racv Noosa Resort;WV;94 Noosa Drive;;MCY;Noosa Heads;QLD;4567;AU;61-07-5341-6309;61-07-5341-6399;5.0;-2.640351;15.308332;SABRE_GDS
100042600;169029;Arrow On Spencer;WV;585 La Trobe Street.;;MEL;Melbourne;VIC;3000;AU;;;4.0;-3.781328;14.495183;SABRE_GDS
100082020;220906;Nightcap At Ferntree Gully Hotel;WV;1130 Burwood Highway;;MEL;FERNTREE GULLY;VIC;3156;AU;0061-3-9758-6544;00;3.0;-37.889899;145.298302;SABRE_GDS
100758605;321743;Nightcap At Sandringham Hotel;WV;;;MEL;MELBOURNE;VIC;3195;AU;61395987255;00;3.0;-3.800731;14.508417;SABRE_GDS
102420701;397717;Veriu Melbourne Qvm;WV;91 Therry Street;;MEL;Melbourne;VIC;3000;AU;61391004600;0399168901;;-3.780725;14.495948;SABRE_GDS
100195538;313023;Imagine Marco;WV;42-48 Balston Street;;MEL;Melbourne;VIC;3006;AU;61-3-86952800;61-3-86952899;4.0;-3.782661;14.496273;SABRE_GDS
100119184;24983;Silkari Urban Cks Sydney Airport Hotel;WV;35 Levey Street.;;SYD;Wolli Creek;NSW;2205;AU;61-2-95561555;61-2-95671309;4.0;-3.393449;15.115552;SABRE_GDS
100010848;117805;Dandenong Central Apartment Hotel;WV;157-163 Lonsdale St;;MEL;Dandenong;VIC;3175;AU;61-3-99168888;61-3-99168899;4.0;-37.990477;145.214323;SABRE_GDS
100682434;327433;Nightcap At Ashley Hotel;WV;226 Ballarat Rd;;MEL;Braybrook;VIC;3019;AU;61-03-93179257;00;3.0;-3.778107;14.486473;SABRE_GDS
100197452;31400;Stamford Plaza Sydney Airport;WW;;;SYD;Mascot;NSW;2020;AU;61-2-93172200;61-2-93173855;5.0;-3.393093;15.118651;SABRE_GDS
100044880;17484;Grand Hotel And Apartments;YX;8 Palmer Street;;TSV;Townsville;QLD;04810;AU;61-7-44483620;61-7-444836621;3.0;-1.925989;14.682005;SABRE_GDS
100049419;319878;Crystalbrook Riley;YX;131 141 Esplanade.;;CNS;Cairns;QLD;4870;AU;1300 00 20 50;61-2-90484499;5.0;-1.691589;14.577336;SABRE_GDS
100426540;79214;Breakfree Long Island Resort;YX;;;HTI;Whitsundays;;4802;AU;61-7-4946 9400;61-7-4946 9555;3.0;-20.334909;148.849758;SABRE_GDS
102167163;384717;Crystalbrook Flynn;YX;85 Esplanade;;CNS;Cairns;QLD;04870;AU;1300 00 20 500;61-2-90484499;5.0;-1.691956;14.577647;SABRE_GDS
100239379;321238;Crystalbrook Albion;YX;21 Little Albion Steet;;SYD;Sydney;NSW;2010;AU;1300 00 20 50;61-2-80297900;5.0;-3.388279;15.121171;SABRE_GDS
100158544;283408;Meriton Suites Chatswood;YX;79 Albert Avenue;;SYD;Chatswood;NSW;2067;AU;61-2-83182000;61-2-92771199;5.0;-3.379866;15.117982;SABRE_GDS
102856517;612142;Swiss-belhotel Brisbane;YX;826 Main Street;;BNE;Brisbane;QLD;04169;AU;64-27-8000027;;;-27.484397;153.036153;SABRE_GDS
100136740;26314;Seasons Of Perth;YX;37 Pier Street;;PER;Perth;WA;6000;AU;61-8-94213000;61-8-93257383;3.0;-319.547;1.158625;SABRE_GDS
101082246;601414;Meriton Suites Canberra;YX;40 Allara Street;;CBR;Canberra;ACT;2601;AU;61-2-61908200;61-2-61908200;;-3.528302;14.913339;SABRE_GDS
102330685;397257;Meriton Suites Uhri;YX;27 Uhrig Road;;SYD;Lidcombe;NSW;02141;AU;61-2-92771111;61-2-92771199;;-3.385028;15.106034;SABRE_GDS
100621418;280599;Direct Hotels Breeze;YX;1 Hibbertia Street.;;MCY;Sunshine Coast;QLD;04557;AU;61-07-54084422;61-7-54084423;;-2.671164;15.310892;SABRE_GDS
100694520;603851;The Wine Vine Hotel;YX;182 Murray St;;ADL;Tanunda;SA;05352;AU;61-8-85632988;;4.0;-3.451499;13.897171;SABRE_GDS
100252714;417479;The Cottesloe Beach Hotel;YX;104 Marine Parade;;PER;Cottesloe;WA;06011;AU;61-8-93831100;61-8-93852482;3.0;-31.994722;115.752224;SABRE_GDS
102774601;610544;The Sundays;YX;10 Palm Terrace Way;;HTI;Hamilton Island;QLD;04803;AU;61-74-9469999;61-7-49468888;;-2.034411;148.954713;SABRE_GDS
100260574;42163;Coconut Inn;ON;Noord 31.;;AUA;Oranjestad;;0;AW;297 586 6288;297 586 5433;3.0;1.256746;-7.003492;SABRE_GDS
100024560;382730;La Cabana Aruba Beach Resort;WV;J.e. Irausquin Blvd 250;;AUA;Oranjestad;;00000;AW;297-520-1100;297-520-1100;3.0;12.551992;-70.053571;SABRE_GDS
102786317;611285;The St. Regis Aruba Resort;XR;J.e Irausquin Blvd 75 E;;AUA;Noord;;;AW;97 281 2222;;;12.564964;-70.049334;SABRE_GDS
100004442;106415;Ramada Plaza Gence;RA;237 Nizami Street;Gence Az2019;GYD;Gence;;AZ2019;AZ;99-422-2670005;99-422-2672015;5.0;4.068764;4.633878;SABRE_GDS
100413410;607120;Excelsior Hotel Spa Baku;WV;2 Heydar Aliyev Avenue;;BAK;Baku;;1154;AZ;994-12-496-8000;994-12-496-8000;4.0;40.391819;49.868434;SABRE_GDS
100935805;606669;Lankaran Springs Wellness;WV;1 Sultan Aliyev Street;;LLK;Lankaran;;AZ-4216;AZ;994-51259600;994-51259600;;38.767049;48.760675;SABRE_GDS
102658827;606560;Badamdar Hotel And Residences;WV;Mikayil Mushfig Street 1c;;BAK;Baku;;1006;AZ;99-412-5389090;99-412-5389090;5.0;40.366464;49.821416;SABRE_GDS
100483134;371285;Almira Hotel;HQ;;;OMO;Mostar;;88000;BA;38736554310;38736554311;4.0;43.337541;17.813795;SABRE_GDS
100021788;139893;Mövenpick Hotel Sarajevo;RT;;;SJJ;SARAJEVO;;71000;BA;387-33-705000;387-33-705001;4.0;4.385285;1.838966;SABRE_GDS
100188478;323377;Bistrik Hotel Sarajevo;ST;Bistrik 34;;SJJ;Sarajevo;;78000;BA;00387-33-475475;00387-33-475476;4.0;43.857506;18.430028;SABRE_GDS
100049623;326558;Hollywood Hotel;ST;Dr Mustafe Pintola 23;;SJJ;SARAJEVO;;71000;BA;00387-33-773100;00387-33-773145;;43.829195;18.308637;SABRE_GDS
100195266;312878;Holiday Hotel Sarajevo;ST;Zmaja Od Bosne 4;;SJJ;Sarajevo;;71000;BA;387 33 288200;387 33 288288;4.0;43.856536;18.404132;SABRE_GDS
100245282;41364;Hilton Barbados;HH;;;BGI;Bridgetown;;BB11000;BB;1-246-426-0200;1-246-434-5770;;1.307922;-5.961171;SABRE_GDS
100165500;287656;Treasure Beach Art Hotel;IM;Hwy 1 Paynes Bay;;BGI;St. James;;BB24009;BB;1-246-4194200;1-246-4321094;4.0;13.184218;-59.630471;SABRE_GDS
100387440;4910;Coral Reef Club;LX;;;BGI;St James;;BB24017;BB;1-246-4222372;1-246-4221776;4.0;1.319281;-5.964056;SABRE_GDS
100166232;364789;Island Inn All Inclusive Hotel;WV;;;BGI;Bridgetown;;;BB;12464366393;12464378035;3.0;13.081824;-59.608721;SABRE_GDS
100218326;38462;Colony Club Hotel;YX;;;BGI;St. James;;BB24017;BB;1-246-4222335;1-246-4220667;4.0;13.216566;-59.621643;SABRE_GDS
100147638;27408;Pan Pacific Sonargaon Dhaka;PF;107 Kazi Nazrul Islam Avenue;G.p.o. Box 3595;DAC;Dhaka;;00000;BD;880-2-55028008;880-2-58153775;5.0;2.374875;9.039426;SABRE_GDS
100008960;114363;Hotel Restaurant Horizon Ath Lessines;AC;Avenue Des Artisans 1;;BRU;GHISLENGHIEN;;7822;BE;32 68 44 51 11;;;50.669228;3.869356;SABRE_GDS
100164674;287128;La Grande Cloche;AC;10 Place Rouppe;;BRU;BRUSSELS;;1000;BE;32 28 99 20 22;;3.0;5.084302;434.635;SABRE_GDS
100009272;114939;De Fierlant;AC;67 Rue De Fierlant;;BRU;BRUSSELS;;1190;BE;3.225.386.070;3.225.389.199;3.0;5.082598;43.313;SABRE_GDS
100290388;368121;Amosa Liege City Centre;AC;Rue Saint Denis 4;;LGG;LIEGE;;4000;BE;32 4 331 93 35;32 4 331 93 35;;5.064333;557.381;SABRE_GDS
100660024;381536;Ibis Budget Antwerpen Centraal Station;AE;Lange Kievitstraat 145;;BRU;ANTWERPEN;;2018;BE;3232025020;3232025021;2.0;5.121352;442.369;SABRE_GDS
100027780;147650;Best Western Hotel Brussels South;BW;E19 Paris-brussels;;BRU;Ruisbroek;;1601;BE;32-2-3702020;32-2-3773983;3.0;50.775886;4.300879;SABRE_GDS
100108650;24196;Best Western Plus Park Hotel Brussels;BW;21 Avenue De L Yser;;BRU;Brussels;;1040;BE;32-2-7357400;32-2-7351967;3.0;5.084156;439.652;SABRE_GDS
100419744;71846;Dolce La Hulpe;DX;135 Chaussee De Bruxelles;;BRU;La Hulpe;;01310;BE;32-2290-9800;0032 2 2909900;4.0;5.074576;44.561;SABRE_GDS
100504676;318181;Hotel Expo;FG;600 Av Houba De Strooper;B 1020 Brussels Beligum;BRU;BRUSSELS;;1020;BE;3224761514;3224761396;3.0;5.089448;433.099;SABRE_GDS
102757049;608163;Hotel Du Bois D'arlon;FG;Route De Virton 356;;LUX;Arlon;;67000;BE;32-63-23-34-41;;;49.648993;5.738455;SABRE_GDS
100188334;309025;Hilton Gi Brussels City Centre;GI;Berckmansstraat 128 Sint Gill;;BRU;Brussels;;1060;BE;32-2-5388830;32-2-5389279;4.0;50.832;43.497;SABRE_GDS
100296104;349951;Hotel De Boskar;HQ;Markt 1;;MST;Peer;;3990;BE;3211398710;3211398711;4.0;5.113307;54.539;SABRE_GDS
100100298;234816;Soul Suites Appartement Hotel;HQ;Marnixplaats 14;;ZWE;Antwerpen;;2000;BE;32471285716;3232571401;4.0;51.21;4.398;SABRE_GDS
100362846;333803;Sabina;HQ;Rue Du Nord 78;;ANR;Bruessel;;1000;BE;3222182637;3222193239;;5.085072;436.747;SABRE_GDS
100102812;236735;Passadia Bed Breakfast;HQ;Ellestraat 60;;QKT;Zwevegem;;8550;BE;32497258585;32497561;;50.807;3.348;SABRE_GDS
100126300;255246;Sunparks Oostduinkerke;HQ;Polderstraat 158.;;OST;Oostduinkerke;;8670;BE;;;3.0;5.113224;271.206;SABRE_GDS
100124916;254219;Center Parcs Erperheide;HQ;Erperheidestraat 2.;;MST;Peer;;3990;BE;;;4.0;51.129;550.271;SABRE_GDS
100001227;382714;Malcot;HQ;Leuvensesteenweg 236;;ANR;Mechelen;;2800;BE;3215451000;3215451001;3.0;5.101383;450.023;SABRE_GDS
100160764;284908;Ter Driezen;HQ;Herentalsstraat 18.;;ANR;Turnhout;;2300;BE;3214418757;3214420310;4.0;51.321611;4.949094;SABRE_GDS
100256204;329583;Chateau De La Motte;HQ;Mettekovenstraat 4;;LGG;Groot-Gelmen;;3800;BE;3211481086;3211481086;3.0;5.078427;527.209;SABRE_GDS
100650596;354586;Typically Brussels Aparthotel;HQ;;Bles 27;ANR;Brussels;;1000;BE;;3225135031;;5.084398;435.168;SABRE_GDS
100103898;23771;Velotel;IH;Handboogstraat 1;;BRU;Brugge;;8000;BE;32 50 252525;32 50 252527;4.0;5.122644;32.132;SABRE_GDS
100082330;328393;Dc Hotel Restaurante Charleroi;IH;Rue Santos Dumont 39;;CRL;Gosselies;;6041;BE;32 71 347700;0;3.0;504.648;445.891;SABRE_GDS
100435568;8825;Ghent Marriott Hotel;MC;Korenlei 10;;BRU;Ghent;;9000;BE;32-92-339393;32-92-339394;4.0;5.105508;372.008;SABRE_GDS
100046732;177345;B-aparthotel Grand Place;OI;25 Rue Des Dominicains.;;BRU;Bruxelles;;1000;BE;32 2 6124300;;3.0;5.084856;435.491;SABRE_GDS
100088496;391700;Hotel Aris Grand Place;OI;Rue Du Marche Aux Herbes 80;;BRU;BRUSSELS;;1000;BE;32-2-5144300;;3.0;5.084715;43.539;SABRE_GDS
100399426;57147;Keizershof Hotel;OI;Korte Nieuwstraat 15;;BRU;Aalst;;9300;BE;32-53-774411;32-53-780097;4.0;509.377;403.557;SABRE_GDS
101090066;600582;Hotel L-avenue;OI;Avenue Louise 323;;BRU;Brussels;;1050;BE;32 2 8911010;;4.0;508.227;436.826;SABRE_GDS
100202768;316758;Hygge Hotel;ON;;;BRU;Ixelles;;1050;BE;32 2 2742800;;3.0;50.835363;4.359185;SABRE_GDS
100185715;604391;The Market By Parkhotel;ON;Graanmarkt 6;;BRU;Kortrijk;;8500;BE;003256219721;;3.0;508.269;326.527;SABRE_GDS
100037962;163102;Hotel Saint Gery By Dandy;ON;Place Saint Gery 29 32;;BRU;Bruxelles;;1000;BE;32 2 2040620;;3.0;5.084799;4.347743;SABRE_GDS
100195764;313141;Martin S Waterloo;ON;Chaussee De Tervuren 198 Lodge;;BRU;Waterloo;;1410;BE;32 2 3521841;;3.0;5.072008;439.752;SABRE_GDS
100484492;322917;Parkhotel Kortrijk;ON;Stationsplein 2;;BRU;Kortrijk;;8500;BE;3256220303;;4.0;5.082496;326.353;SABRE_GDS
102266897;393558;Citybox Antwerp;ON;Molenbergstraat 2-4;;ANR;Antwerp;;2000;BE;32-36-333273;;3.0;5.122063;441.514;SABRE_GDS
100022892;141412;Selfservice Boutique Hotel 3 Paardekens;ON;Begijnenstraat 3.;;BRU;Mechelen;;2800;BE;32 15 342713;32 15 342715;3.0;5.102806;447.814;SABRE_GDS
100001406;10193;Auberge Du Souverain Les Rives Du Gange;ON;Avenue De La Fauconnerie 1;;BRU;Bruxelles;;1170;BE;32 2 6721601;32 2 6724330;3.0;5.080137;442.189;SABRE_GDS
100043596;171373;Blue Woods Hotel;ON;Stationsstraat 230.;;LIL;Deerlijk;;8540;BE;32 56 782772;32 56 782773;4.0;508.391;334.852;SABRE_GDS
100632893;324495;August;ON;Jules Bordetstraat 5;;ANR;Antwerp;;2018;BE;32 3 5008080;;4.0;51.201896;4.422323;SABRE_GDS
100588900;10163;Hotel Weinebrugge;ON;Leikendreef 1.;;OST;Brugge;;8200;BE;32 50 384440;;4.0;5.116971;319.641;SABRE_GDS
102096487;328259;Residence Inn By Marriott Ghent;RC;Akkerhage 2 A;;GNE;Ghent;;9000;BE;32-9-3950512;;3.0;5.102005;373.466;SABRE_GDS
100112146;24469;Ibis Waterloo;RT;Boulevard Henri Rolin 5a;;BRU;WATERLOO;;B-1410;BE;32-2-3510030;32-2-3510131;3.0;507.114;439.908;SABRE_GDS
100215502;36698;Novotel Leuven Centrum;RT;Vuurkruisenlaan 4;;BRU;LEUVEN;;3000;BE;32-1-6213200;32-1-6213201;;5.088589;471.044;SABRE_GDS
100429298;8192;Novotel Brussels Off Grandplace;RT;120 Rue Du Marche Aux Herbes;;BRU;Brussels;;1000;BE;32-26200429;32-2-5117723;4.0;5.084621;435.506;SABRE_GDS
100211710;34350;Hotel Ibis Kortrijk Centrum;RT;Doorniksestraat 26 30;;BRU;KORTRIJK;;8500;BE;32-56-257975;32-56-226280;3.0;5.082592;326.685;SABRE_GDS
100130742;25853;Ibis Brussels Airport;RT;Bessenveldstraat 17b;;BRU;DIEGEM;;1831;BE;32-2-7254321;32-2-7254040;3.0;5.088223;443.709;SABRE_GDS
100101150;23543;Ibis Brussels Expo-atomium;RT;Romeinse Steenweg 572;;BRU;STROMBEEK-BEVER;;1853;BE;32-2-4610021;32-2-4610484;3.0;5.090258;433.929;SABRE_GDS
100143474;26952;Ibis Styles Brugge Centrum;RT;Katelijnestraat 65 A;;BRU;Brugge;;8000;BE;32-50-337575;32-50-336419;3.0;512.021;322.698;SABRE_GDS
100035554;154797;Aparthotel Adagio Access Brussels Europe;RT;12 Rue De L Industrie;;BRU;BRUSSELS;;1000;BE;32-2-2741780;32-2-2741781;3.0;50.841896;4.369522;SABRE_GDS
101044194;388493;Mercure Han Sur Lesse;RT;Rue Joseph Lamotte 16 18 20;;CRL;Han Sur Lesse;;5580;BE;3293943990;3293943990;4.0;50.125872;5.186171;SABRE_GDS
100393510;53232;Ibis Sint Niklaas Centrum;RT;Hemelaerstraat 2;Sint Niklaas Be 9100;ANR;SINT NIKLAAS;;9100;BE;32-3-2313141;32-3-2317191;3.0;5.116488;413.798;SABRE_GDS
100017076;13251;Ibis Liege Seraing;RT;Route Du Condroz 15b.;;LGG;BONCELLES;;4100;BE;32-4-3385397;32-4-3384511;3.0;5.056907;555.137;SABRE_GDS
100016430;13064;De Keyser Hotel;SX;De Keyserlei 66 To 70;;ANR;Antwerp;;2018;BE;32 3 2067460;32 3 2323970;4.0;5.121701;441.953;SABRE_GDS
100391300;51715;Thon Hotel Brussels Cty Centre;TF;Avenue Du Boulevard 17.;;BRU;Brussels;;01210;BE;32-2-2051511;32-2-2011515;4.0;5.085594;435.733;SABRE_GDS
100110766;24364;Hc Hotel Theater;UI;Arenbergstraat 30;;ANR;Antwerp;;2000;BE;32 3-203-5410;32 3-203-5410;3.0;51.125505;4.242993;SABRE_GDS
100054690;186484;Leopold Hotel Ostend;UI;Van Iseghemlaan 110.;;OST;Oostende;;8400;BE;32-597-00806;32-598-04007;;512.292;2.911347;SABRE_GDS
100467324;84432;Green Park Hotel Brugge;UI;Chartreuseweg 20;;OST;Brugge;;8200;BE;32-50-402140;;;5.117334;32.036;SABRE_GDS
100179774;29956;New Hotel Charlemagne;UI;25-27 Boulevard Charlemagne.;;BRU;BRUSSELS;;1000;BE;32-2-2302135;32-2-2302510;4.0;508.452;438.277;SABRE_GDS
100086676;226176;Leopold Hotel Oudenaarde;UI;De Ham 14;;BRU;Oudenaarde;;9700;BE;32-556-99965;32-556-99966;4.0;50.840311;360.393;SABRE_GDS
100092984;230375;Van Der Valk Hotel Dennenhof;WV;Bredabaan 940;;ANR;Brasschaat;;2930;BE;3236630509;;;5.133759;4.527093;SABRE_GDS
100412384;66309;Aspria Royal La Rasante;WV;Rue Sombre 56.;;BRU;Brussels;;01200;BE;32-02-6091902;32-2-6091999;4.0;5.083982;44.316;SABRE_GDS
100391914;52113;Hotel Arlequin;WV;Rue De La Fourche 17;;BRU;Brussels;;1000;BE;32-2-5141615;32-2-5272449;3.0;5.084808;435.307;SABRE_GDS
100560146;321521;Hotel Hubert;WV;Rue D Arenberg 18;;BRU;BRUSSELS;;;BE;32025481818;;4.0;5.084832;435.657;SABRE_GDS
100410751;322637;Appartcity Bruxelles Gare;YX;38a Rue Rossini;;BRU;BRUXELLES;;01070;BE;32-2-4140999;32 23 19 93 42;3.0;50.838;433.197;SABRE_GDS
100058374;19064;Le Chatelain Brussels Hotel;YX;Rue Du Chatelain 17;;BRU;Brussels;;01000;BE;32-2-6460055;32-2-6460088;5.0;50.826146;4.363809;SABRE_GDS
102535845;605339;Four Points By Sheraton Bansko;FP;7 Glazne Street 36 Gotse;;SOF;Bansko;;2770;BG;359-74-953000;359-749-88118;;4.183506;2.348518;SABRE_GDS
100230996;375837;Central Hotel Sofia;HQ;52 Hristo Botev Blvd;;SOF;Sofia;;1000;BG;35924341166;35924341221;4.0;4.269808;2.331572;SABRE_GDS
100093008;230393;Strimon Spa Club;HQ;24 Tzar Simeon 1st Street;;SOF;Kyustendil;;2500;BG;35978559000;35978559007;5.0;42.284;22.689;SABRE_GDS
100489158;385055;Melia Sunny Beach;ME;8240 Sunny Beach;;BOJ;NESSEBAR;;8240;BG;35955441050;;;426.953;2.771028;SABRE_GDS
102283605;388126;The Emporium Plovdiv Mgallery;SB;Kapitan Raycho Str 66;;PDV;PLOVDIV;;4000;BG;;0;5.0;4.214237;2.475798;SABRE_GDS
100027418;147171;Balkan Jewel Resort;TQ;;;SOF;Bansko;;02760;BG;359-747-98111;359-747-98111;4.0;4.185582;2.341723;SABRE_GDS
102113525;328980;Grand Hotel Millennium Sofia;WV;89b Vitosha Blvd;;SOF;Sofia;;1463;BG;359-2-4442070;359-2-4442070;5.0;426.833;233.158;SABRE_GDS
100188336;613125;Hotel Premier Sofia Airport;YX;11 Brussels Blvd;;SOF;Sofia;;01592;BG;359-2-9051313;;4.0;42.680938;23.398535;SABRE_GDS
100348414;46705;Crystal Palace;YX;14 Shipka Street;;SOF;Sofia;;1504;BG;359-2-9489489;359-2-9489490;4.0;42.693725;2.333741;SABRE_GDS
101094214;396454;Address Beach Resort Bahrain;AT;;Road 6403 Block 264;BAH;Manama;;00000;BH;973-7748-8880;973-7748-8880;5.0;26.223531;50.587594;SABRE_GDS
100366716;374719;Oriental Palace Hotel;HQ;;;BAH;Manama;;5546;BH;97317223331;97317214141;3.0;2.623254;5.057595;SABRE_GDS
100159558;284064;Ramada Hotel And Suites Amwaj;RA;Building 1741 Road 5715;Block 257;BAH;Amwaj;;00000;BH;973-13600111;973-13600222;;2.629251;5.066378;SABRE_GDS
100412362;663;Sofitel Bahrain Zallaq Thalassa Sea And Spa;SB;Block 1055 Zallaq Area.;Po Box 5554 Zallaq Highway;BAH;MANAMA;;0;BH;973-17636363;973-17636364;5.0;26.223504;50.582244;SABRE_GDS
100414248;674;Sheraton Bahrain Hotel;SI;6 Palace Ave-p.o. Box 30.;;BAH;Manama;;00000;BH;973-17-533533;973-17-534069;4.0;26.239404;50.583543;SABRE_GDS
100550142;253247;Club Du Lac Tanganyika;HQ;;;BJM;Bujumbura;;BP6573;BI;25722250221;25722250219;5.0;-3.351;29.32;SABRE_GDS
100201128;315942;City Hill Hotel;OI;Boulevard Du 28 Novembre N 50;;BJM;BUJUMBURA;;2816;BI;0025722277784;0025722277787;;-33.872;2.938276;SABRE_GDS
100193042;311691;Golden Tulip Le Diplomate Cotonou;GT;90 Rue 12.017 - Boulevard De;La Marina - 01 Bp 8379;COO;Cotonou;;;BJ;229-21300200;229-21300203;4.0;635.022;241.112;SABRE_GDS
100125776;25483;Novotel Cotonou Orisha;RT;;Bp 08 0929 Cotonou Benin;COO;Cotonou;;;BJ;229-21-305662;229-21-304188;3.0;634.867;240.098;SABRE_GDS
102129567;327999;Le Carl Gustaf;YX;;;SBH;Gustavia;;97133;BL;590-590-297900;33-492-992026;5.0;17.894467;-62.847279;SABRE_GDS
100006762;110611;Newstead Belmont Hills;XT;27 Harbour Road A;;BDA;Paget;;PG 02;BM;1-441-2366060;1-441-2362296;4.0;32.283857;-64.786738;SABRE_GDS
100056332;188450;Stannum Boutique Hotel And Spa;GD;2631 Arce Av 5th Floor;;LPB;La Paz;;00000;BO;591-2-2148393;591-2-2147689;;-16.495637;-68.133635;SABRE_GDS
100058286;190517;Hotel Villa Antigua;HQ;Calvo 237;;SRE;Sucre;;.;BO;59146443437;59146914688;4.0;-19.05;-65.257;SABRE_GDS
102266389;393739;Novotel Santa Cruz De La Sierra;RT;Av Roca Coronado 901;;VVI;Santa Cruz;;0;BO;591 33526358;;5.0;-17.785567;-63.213097;SABRE_GDS
102168957;385566;Tryp By Wyndham Santa Cruz;WT;;Calle 9 Este;VVI;Santa Cruz de la Sie;;000000;BO;591-7707-7205;591-3341-2900;4.0;-17.765173;-63.195157;SABRE_GDS
100621940;162096;Casa Grande Hotel;WV;Calle 16 N 8009.;;LPB;Calacoto;;;BO;59122774000;59122772323;;-16.539789;-68.082948;SABRE_GDS
100201568;316163;Ecolodge La Estancia;WV;;;LPB;Isl del Sol TITICACA;;;BO;59122442727;;;-1.601776;-6.917154;SABRE_GDS
100424002;76753;Hotel Aranjuez Cochabamba;YX;Calle Buenos Aires E 563;;CBB;Cochabamba;;BO;BO;591-4-4280076;591-4-4240158;;-17.373727;-66.154338;SABRE_GDS
100550396;70659;Hotel Rosario Del Lago;YX;;;LPB;Copacabana;;00000;BO;591-2-8622140;591-1-8622140;4.0;-16.165557;-69.088061;SABRE_GDS
100245180;378463;Old Gin House;HO;1 Oranjebaai;;EUX;Oranjestad - St Eust;;F2J6 VW;BQ;599-318-2319;;3.0;17.486749;-62.976498;SABRE_GDS
102967809;615598;Ibis Budget Itaperuna;AE;Av Presidente Dutra 407;;GIG;ITAPERUNA;AC;28300000;BR;;;;-21.201091;-41.896526;SABRE_GDS
100589508;615221;Ibis Budget Copacabana Rj;AE;Rua Constante Ramos N 96;;GIG;RIO DE JANEIRO;AC;22051012;BR;;;2.0;-22.973126;-43.190057;SABRE_GDS
100621376;604582;Ibis Budget Manaus;AE;Avenida Djalma Batista 1151;;MAO;MANAUS;AM;69050010;BR;55 92 21279900;;;-307.596;-6.002465;SABRE_GDS
102965703;615334;Ibis Budget Sao Bernardo Do Campo;AE;;;GRU;SAO BERNARDO DO CAMP;AC;9750700;BR;;;;-2.369281;-46.552009;SABRE_GDS
100208882;32674;Renaissance Sao Paulo Hotel;BR;Alameda Santos 2233.;;CGH;Sao Paulo;SP;01419-002;BR;55 11 3069-2233;55-11-30693344;5.0;-2.355843;-4.666192;SABRE_GDS
100790601;5554;Comfort Hotel Sertaozinho;CI;Rua Carlos Gomes 627;;RAO;SERTAOZINHO;SP;14160 020;BR;55-16 3521 2300;55-16 3521 2300;;-21.136684;-47.995096;SABRE_GDS
100687406;14583;Radisson Vila Olimpia Sao Paulo;CR;R. Fidencio Ramos 420;;CGH;Sao Paulo;;04551-010;BR;55 11-43953279;55 11-35314860;4.0;-2.359556;-4.668814;SABRE_GDS
100320913;136423;Astron Hotel Bauru By Nobile;GN;Rua Luso Brasileiro 04 44;;JTC;BAURU;SP;17016230;BR;55-14-21097777;55-14-21097777;4.0;-2.233904;-49.066652;SABRE_GDS
102334887;608727;Ameris Park Hotel;GN;Rua 1 Quadra Loja 1;;BSB;Valparaiso de Goias;GO;72870-401;BR;55-61-36277962;;;-16.051118;-47.978178;SABRE_GDS
100700824;327862;Ameris Hotel Fazenda Palestina;GN;;;CNF;Itapecerica;MG;35550000;BR;55-37-33411106;55-37-33411106;;-2.047587;-4.512591;SABRE_GDS
101044544;388879;Ameris Hotel Estacao Brejal;GN;Avdr Jisemar De Lucena Sn Km 5;;FOR;BREJO SANTO;CE;63260000;BR;55-88-35310219;;;-750.708;-3.898729;SABRE_GDS
102941493;614283;Hotel Tango Suites Cumbuco;GN;Avenida Central 358;;FOR;Caucaia;CE;61619-007;BR;55-1-8599749898;55-85-99749898;;-3.634124;-38.716571;SABRE_GDS
102941753;614342;Izzy Hotel;GN;R Eduardo De Oliveira 887;;UDI;Uberlandia;MG;38400-011;BR;55-34-988741212;;;-18.917037;-48.266959;SABRE_GDS
102273251;397827;Figueiras Hotel By Nobile;GN;R Duque De Caxias 311;;XAP;Sao Miguel do Oeste;SC;89900000;BR;55-49-31975000;;;-2.672471;-5.351806;SABRE_GDS
102592477;605536;Ameris Partner Caxias Do Sul;GN;R Joao Nichele 3237;;CXJ;Caxias do Sul;RS;95012-631;BR;55-54-3021838890;55-54-3021838891;;-2.917493;-5.122559;SABRE_GDS
102756123;271391;Ameris Express Confort Hotel;GN;R Independencia 654;;POA;Sao Leopoldo;;93010-002;BR;55-51-30376565;55-51-30376565;;-29.765315;-51.145741;SABRE_GDS
100688200;105068;Jurere Beach Village;GN;;;FLN;Florianopolis;SC;88053400;BR;55-48-32615100;55-48-32615100;4.0;-2.743952;-4.848964;SABRE_GDS
102332025;613838;Villa Zen Hotel;GN;;;FOR;Camocim;CE;62400-000;BR;55-88-96498986;;3.0;-2.877141;-40.955309;SABRE_GDS
100377790;608359;Hotel Klein Ville Dois Irmaos;GN;Rua Sao Jose 43;;POA;Dois Irmaos;RS;93950-970;BR;55-51-32264022;;3.0;-29.588204;-51.088134;SABRE_GDS
100801833;322804;Oasis Plaza;GN;Av Presidente Kennedy 2445;;RAO;Ribeirao Preto;SP;14095210;BR;55-16-30243000;55-16-30243000;3.0;-2.119563;-4.776327;SABRE_GDS
100165808;611637;Ameris Ez Aclimacao Hotel;GN;Av Armando Ferrentini 668;;CGH;Sao Paulo;SP;04103-030;BR;55-11-33467799;55-11-33467799;4.0;-23.577051;-4.663689;SABRE_GDS
100203890;317314;Ameris Domus Hotel Torre;GN;Rua Da Torre N 623;;CKS;CANAA DOS CARAJAS;PA;68537000;BR;55-31-38223879;55-31-38223879;3.0;-653.057;-4.984981;SABRE_GDS
100585212;220915;Ameris Capcana Hotel;GN;Alameda Santos 484;;CGH;SAO PAULO;BA;1418000;BR;55-11-974940551;55-11-974940551;4.0;-23.569169;-46.648861;SABRE_GDS
102318687;396519;Uno Hotel By Nobile;GN;Av Agamenon Magalhes 1046;;REC;CARPINA;AC;55815060;BR;55-81-36215137;55-81-36215137;;-1.296197;-392.529;SABRE_GDS
100415058;397245;Itapema Beach Hotel;GN;Br 101 Km 144;;NVT;Itapema;SC;88220000;BR;55-47-32617000;55-47-32617000;4.0;-2.710752;-4.861412;SABRE_GDS
100469756;602886;Ameris Herval Park Hotel;GN;Rua Comandante Lincon Paiva 12;;PMG;Ponta Pora;MS;79906002;BR;55-67-34333004;55-67-34333004;3.0;-2.255848;-5.570917;SABRE_GDS
100395438;327899;Ameris Magna Praia Hotel;GN;Av H Raimundo Girao 1002;;FOR;Fortaleza;CE;60165-050;BR;55-85-32666103;;4.0;-3.723089;-38.506648;SABRE_GDS
100539002;123455;Ameris Hotel Zip Florianopolis;GN;;;FLN;Florianopolis;SC;88010001;BR;55-48-32251100;55-48-32251100;;-2.759473;-4.855483;SABRE_GDS
100350086;393336;Ameris Hotel Dias;GN;Rua Adolfo Olinto 184 Centro;;PLU;POUSO ALEGRE;MG;37500000;BR;55-35-34493939;;3.0;-2.223228;-459.339;SABRE_GDS
100420973;393099;Ameris Catavento Hotel;GN;Br 040 Km 95;;BSB;CRISTALINA;GO;73850;BR;59 61 36126119;0;;-1.684466;-4.747813;SABRE_GDS
101088010;601810;Ameris Hotel Portal Dos Ventos;GN;Rua Antonio Gutemberg 160;Lote 3 Reis Veloso;PHB;Parnaiba;PI;64204-075;BR;55-86-33234989;;;-290.856;-4.175159;SABRE_GDS
102266885;544281;Ameris Jabaquara Imigrantes;GN;Rua Dos Jequitibas 167 Jabaqua;;CGH;Sao Paulo;;04022-001;BR;55-11-50110267;;;-2.364655;-4.664199;SABRE_GDS
100693436;169182;Astron St. Moritz By Nobile;GN;Rua Joao Pessoa 124;;CGH;Sao Bernardo do Camp;SP;09715-00;BR;55-11-26660666;;3.0;-237.088;-4.654898;SABRE_GDS
100491956;386037;Ameris C Design Hotel;GN;Av Lucio Costa 17360;;GIG;RIO DE JANEIRO;RJ;22795-009;BR;55-21-36139700;55-21-36139700;4.0;-23.027053;-43.464894;SABRE_GDS
100691528;319454;Ameris Hotel Kk;GN;Rua Presidente Kennedy 48;;VCP;Itu;SP;13300083;BR;55-11-40139000;55-11-40139000;3.0;-2.326163;-4.729416;SABRE_GDS
100797951;145293;Ameris Oscar Hotel;GN;;;PVH;Porto Velho;RO;76801-084;BR;55-69-21820600;55-69-21820600;3.0;-876.586;-6.390819;SABRE_GDS
100226230;614810;Ameris Plaza Praia Suites;GN;Ave Barao De Aracati 94;;FOR;Fortaleza;CE;60115080;BR;55-85-34551500;55-85-34551500;4.0;-3.722693;-38.508971;SABRE_GDS
100489290;221285;San Diego Express Barro Preto;GN;;;PLU;Belo Horizonte;MG;30190-130;BR;55-31-36143750;55-31-36143750;3.0;-1.991924;-4.395565;SABRE_GDS
100294796;440244;Ameris Casablanca Imperial;GN;;;GIG;PETROPOLIS;RJ;25610-320;BR;55-24-22426662;55-24-22426662;3.0;-2.250704;-4.317685;SABRE_GDS
100341100;365570;Ameris Vila Alaide Praia Hotel;GN;Rua Bernardo Aguiar 129;;NVT;BARRA VELHA;SC;88839-000;BR;55-47-96079869;;3.0;-2.663375;-4.868491;SABRE_GDS
100438956;123495;Ameris Mogano Premium;GN;Av. Fernando Machado 574 E;;XAP;Chapeco;SC;89814-210;BR;55-49-33216300;55-49-33216300;4.0;-27.110344;-52.615028;SABRE_GDS
100362656;474114;Ameris Hotel Steinhausen;GN;Rua Minas Gerais 53;;NVT;Blumenau;SC;89012497;BR;55-47-33293437;55-47-33293437;3.0;-2.691473;-4.908068;SABRE_GDS
100050953;393263;Ameris Hotel Vila Serrana;GN;Rua Paulo Frontin 799;;CNF;SETE LAGOAS;MG;35700049;BR;55-31-37764422;;3.0;-1.945752;-4.424811;SABRE_GDS
100018149;397320;Ameris Lis Hotel;GN;Rua Sao Pedro 1961;;THE;Teresina;AC;64001-260;BR;55-86-32262600;55-86-32262600;3.0;-5.091145;-42.806515;SABRE_GDS
102306883;602791;Hotel Vila Suica 1818;GN;;;MEA;Nova Friburgo;AC;28615060;BR;55-22-999642787;55-22-999642787;3.0;-2.233742;-4.251197;SABRE_GDS
100693080;88401;Nobile Suites Golden Fortaleza;GN;Avenida Beira Mar 4260;;FOR;Fortaleza;CE;60165121;BR;55-3466-1323;0-000-0000;3.0;-3.723146;-38.483057;SABRE_GDS
100622020;388742;Vale Dos Carajas Park Hotel;GN;Rod Faruk Salmen Km 2;;CKS;Parauapebas;PA;68515-000;BR;55-94-33462880;;4.0;-608.936;-4.984527;SABRE_GDS
100262838;602493;Farina Park Hotel By Nobile;GN;Rs 453 Km 106;;CXJ;Farroupilha;RS;95181-899;BR;55-54-95181899;55-54-95181899;;-29.200064;-51.477472;SABRE_GDS
102941519;614302;Sartao Do Luar;GN;;;PCS;Coronol Jose Dias;PI;64793;BR;55-89-981105637;55-89-981105637;;-8.854856;-42.558051;SABRE_GDS
100690734;283626;Onix Hotel Aeroporto;GN;;;SSA;Lauro de Freitas;BA;42703-510;BR;55-71-99678-5544;;3.0;-1.289796;-3.833044;SABRE_GDS
101077438;600921;Ameris Domus Hotel Palmeiras;GN;;;CKS;CANAA DOS CARAJAS;PA;68537000;BR;55-31-38223879;55-31-38223910;;-653.201;-4.987207;SABRE_GDS
100657065;607395;Ameris Taroba Express;GN;R. Jorge Sanwais 448;;IGU;Foz do Iguacu;PR;85851-150;BR;55-45-21027700;;3.0;-25.540927;-54.588106;SABRE_GDS
101092448;602009;Ameris Pipa Atlantico Resort;GN;Avenida Baia Dos Golenhos 578;;NAT;Praia da Pipa;RN;59178-000;BR;55-84-32462565;55-84-32462025;;-622.875;-3.504999;SABRE_GDS
100296055;393326;Ameris Hotel Calabreza;GN;Rua Joaquim Bento Carvalho 65;;VAG;Tres Coracoes;MG;37410000;BR;55-35-32311183;55-35-32311183;3.0;-2.169821;-4.525712;SABRE_GDS
100222045;601212;Ameris Hotel Rota Do Pantanal;GN;Av Ver Aurelino Coutinho 2063;;PPB;PRESIDENTE PRUDENTE;SP;19053-360;BR;55-18-21014500;;;-2.214167;-5.140947;SABRE_GDS
101044520;388853;Ameris Aquarius Hotel;GN;Avenida Capitao Silvio N 6996;;PVH;ARIQUEMES;RO;76876690;BR;55-69-35161200;;;-99.216;-6.303566;SABRE_GDS
100009070;114542;Royalty Barra;GN;Avenida Do Pepe 690;;GIG;RIO DE JANEIRO;RJ;22620-170;BR;55-21-24835373;55-21-24835373;4.0;-23.014706;-43.304832;SABRE_GDS
100621400;326480;Ameris Catu Palace Hotel;GN;;;ROO;RONDONOPOLIS;MT;78700100;BR;55-66-34643200;55-66-34643200;3.0;-1.644312;-5.467283;SABRE_GDS
100376996;481145;Occitano Apart Hotel By Nobile;GN;Rua Marcelo Vacchi N 100;;VCP;Piracicaba;SP;13420367;BR;55-19-34290029;55-19-34290029;4.0;-2.273395;-4.760855;SABRE_GDS
102764981;610261;Hotel Cabo Branco Atlantico;GN;Avenida Cabo Branco 4550;;JPA;Joao Pessoa;PB;58045-010;BR;55-83-986547928;55-83-986547928;3.0;-714.566;-34.809777;SABRE_GDS
100596000;208665;Ameris Hotel Estacao 101 Itaja;GN;Br 101 Km 118;;NVT;Itajai;SC;88317-390;BR;55-47-33900101;55-47-33900101;3.0;-26.894917;-48.720575;SABRE_GDS
102853705;611502;Naalt Hotel Joinville;GN;;;JOI;Joinville;SC;89216-202;BR;55-47-35123600;55-47-35123600;;-26.292904;-48.88;SABRE_GDS
102543409;605534;Ameris Pousada Recanto Moria;GN;Estrada Do Corrego Frio 356;;GIG;Itatiaia;RJ;27580-000;BR;55-24- 999422282;55-24- 999422282;;-2.242374;-4.453292;SABRE_GDS
102266603;393323;Ameris Hotel Gontijo Bh;GN;Rua Tupinambas 731;;CNF;BELO HORIZONTE;AC;;BR;55-31-999663131;;;-1.991735;-4.394118;SABRE_GDS
102501761;613757;Kariris Blue Tower;GN;Rua Andre Cartaxo 195;;JDO;Crato;CE;63100-172;BR;55-88-988265973;;2.0;-7.229904;-39.406523;SABRE_GDS
100244506;340580;Monte Castro Executive Hotel;GN;Av. Mato Grosso 1870;;UDI;Araguari;;38440-046;BR;55-34-992040072;;3.0;-18.640421;-48.191878;SABRE_GDS
100375086;610260;Ameris Pousada Wood House;GN;Estrada Crescencio Costa 125;;GIG;Petropolis;RJ;25740-220;BR;55-24-22430355;55-24-22430355;;-2.237707;-43.110655;SABRE_GDS
100142521;615389;Ameris Pousada Rainha Da Mata;GN;Rua Canto Verde 120;;GUJ;Itatiaia;RJ;27580-000;BR;55-24-993111367;;;-22.442619;-44.518624;SABRE_GDS
100516422;392091;Wr Confort Hotel;GN;Av Ministro Joao Arinos 3387;;CGR;CAMPO GRANDE;AC;79045005;BR;55-67-33440269;55-67-33440269;3.0;-20.463856;-54.553211;SABRE_GDS
100800423;316796;Hotel Gran Executive;HB;R. Natal 1415.;;UDI;Uberlandia;MG;38405-000;BR;55.34.3221-1100;55.34.3221-1100;4.0;-189.055;-4.826038;SABRE_GDS
100801385;321123;Araucaria Flat;HB;;Grillo 141;AQA;Araraquara;;14801-794;BR;;;4.0;-2.178397;-4.819739;SABRE_GDS
100158704;283509;Essenza Hotel;HB;;;FOR;Jericoacoara;CE;92598-000;BR;;;5.0;-288.772;-4.084578;SABRE_GDS
100601694;198157;Hotel Dan Inn Uberaba E Convençoes;HB;Av Filomena Cartafina 152.;;UBA;Uberaba;MG;38040-450;BR;;55-34-33364297;3.0;-19.781111;-47.945375;SABRE_GDS
100585590;318689;Papillon Hotel;HB;;;GYN;Goiania;GO;74115030;BR;62-3608-1500;55 62 32128739;;-1.668078;-4.926682;SABRE_GDS
100006594;110315;Sunshine Praia Hotel;HB;Av Beira Mar 1200;;BPS;Porto Seguro;BA;45810-000;BR;55 73 2105-3000;55 73 21053000;;-16.388687;-3.903574;SABRE_GDS
102488337;604794;Hotel Atlantico Macae By Inn House;HB;;;RIO;MACAE;RJ;27915-250;BR;;;;-2.238796;-417.727;SABRE_GDS
100084614;223780;Smart Hotel;HB;;;JPA;Joao Pessoa;PB;58039111;BR;;55 83 21061020;3.0;-711.934;-3.482564;SABRE_GDS
100809157;272752;Vila Gale Rio De Janeiro;HB;R. Riachuelo 124 - Lapa;;RIO;Rio de Janeiro;RJ;20230-014;BR;;;4.0;-2.291439;-4.318457;SABRE_GDS
100156912;282400;Dan Inn Barretos;HB;Praca Francisco Barreto 260;;RAO;Barretos;SP;38184-529;BR;55 17 2137-9922;;3.0;-205.585;-4.856676;SABRE_GDS
100517072;246832;Hotel Golden Park Boa Viagem;HB;Avenida Boa Viagem 5576;;REC;Recife;PE;51030-000;BR;55-81-32016721;55-81-32016721;;-81.349;-3.490892;SABRE_GDS
100544956;281308;Hotel Corais De Tambau;HB;Av. Almirante Tamandare 624;;JPA;JOAO PESSOA;PB;58039010;BR;;55 83 30222502;3.0;-711.536;-3.482309;SABRE_GDS
100582882;326725;Fenix Hotel Araxa;HB;;;AAX;Araxa;MG;38184200;BR;;;3.0;-1.957881;-4.695436;SABRE_GDS
100668394;608305;Sol Alphaville Hotel E Residence;HB;Avenida Cauaxi 223;;CGH;Barueri;SP;06454-020;BR;;;;-23.494456;-46.851134;SABRE_GDS
102264429;393085;Class Hotel Piracicaba;HB;Avenida Centenario 152;;VCP;Piracicaba;SP;13416000;BR;19 34173550;;;-2.270887;-4.764503;SABRE_GDS
100156066;281879;Golden Park Campos Do Jordao;HB;;Pinheiro 2000;SJK;Campos do Jordao;SP;12460000;BR;55 12 3662 1615;55-12-36633577;3.0;-2.276033;-45.611003;SABRE_GDS
100524042;600168;Matiz Manhattan Sao Paulo;HB;Rua Haddock Lobo 867;;GRU;SAO PAULO;SP;01414001;BR;55 11 2401 7440;55 11 3083 5511;4.0;-235.597;-4.666359;SABRE_GDS
100691722;76079;Slim Curitiba Alto Da Xv;HB;R Conselheiro Araujo 435;;CWB;Curitiba;PR;80060230;BR;55-41-3017-1020;;3.0;-25.424705;-49.260387;SABRE_GDS
100525914;283373;Saint Emilion Hotel;HB;;1295 Centro;CWB;CURITIBA;PR;80420210;BR;55-41-3219-1000;55-41-3219-1000;;-254.331;-4.927952;SABRE_GDS
100620030;321253;Porto Grande Hotel E Convention;HB;;;SJK;Sao Sebastiao;SP;11608200;BR;;;3.0;-2.379202;-4.539937;SABRE_GDS
102854273;611639;Transamerica Dunas De Marape;HB;;;MCZ;Jequia Da Praia;AL;57255-000;BR;;;3.0;-10.046872;-36.031651;SABRE_GDS
100203784;317260;Intercity Maceio;HB;;;MCZ;Maceio;;57035-380;BR;;;;-965.582;-3.570398;SABRE_GDS
102479991;604377;Golden Park Uberlandia;HB;Avenida Rondon Pacheco 5455;;UDI;Uberlandia;MG;38400-655;BR;55343318-6200;;2.0;-1.890061;-4.825941;SABRE_GDS
100013384;122060;Oft Place Hotel;HB;Av Anhanguera 4999.;;GYN;Goiania;GO;74043011;BR;55 62 32249666;55 62 32259606;3.0;-1.667488;-4.925756;SABRE_GDS
102421425;398060;Hotel Intercity Canoas;HB;Av Getulio Vargas 4861;;POA;Canoas;RS;92010-011;BR;11996187831;;4.0;-2.989618;-5.117585;SABRE_GDS
100609043;324462;Hotel Alji Salto;HB;Rua Israel 64 .;;VCP;Salto;SP;13322424;BR;;;3.0;-2.318251;-4.727617;SABRE_GDS
100025464;144772;Hotel Belvedere;HB;Av Apolonio Sales 457;;PAV;Paulo Afonso;BA;48601-200;BR;55-75-3501-1212;55-75-3281-6102;3.0;-939.847;-3.822351;SABRE_GDS
102323055;393852;Fit Transamerica Sorriso;HB;Avenida Blumenau 2235;;SMT;Sorriso;MT;78890-001;BR;;;;-1.254936;-5.572839;SABRE_GDS
100454640;189088;Slaviero Baia Norte Florianopolis;HB;Av Beira Mar Norte 220 Centro;;FLN;Florianopolis;SC;88015600;BR;55-41-40001100;;4.0;-27.590918;-4.856262;SABRE_GDS
100086284;225851;Eco Resort Serra Imperial;HB;Rua Francisco Eller 387.;;QGJ;Nova Friburgo;RJ;28616-130;BR;2225423300;2225423300;4.0;-2.231874;-4.232829;SABRE_GDS
101112912;603415;Jangal Das Araucarias Swan Design Hotel Canela;HB;R Nagibe Galdino Da Rosa 253;;POA;CANELA;RS;95680-000;BR;;;4.0;-2.935989;-508.212;SABRE_GDS
100155602;281581;San Michel Hotel;HB;Largo Do Arouche 200.;;SAO;Sao Paulo;SP;01219010;BR;0551132241420;0551132213202;3.0;-2.354141;-4.664515;SABRE_GDS
100799577;321051;Intercity São Leopoldo;HB;Avenida Joao Correa 887;;POA;Sao Leopoldo;RS;93010-090;BR;;;4.0;-2.977064;-5.114382;SABRE_GDS
100640052;607459;Bristol Upper Curitiba Alto Da Xv;HB;Rua Xv De Novembro 2050;;CWB;CURITIBA;PR;80050-000;BR;55413218-8500;;3.0;-25.427168;-49.254456;SABRE_GDS
100414242;320686;Transamerica Executive Belo Horizonte;HB;Avenida Del Rey 233.;;BHZ;Belo Horizonte;MG;30775-240;BR;;;;-1.989057;-4.396827;SABRE_GDS
100460270;281228;Ciribai Praia Hotel;HB;Rua Dos Jacarandas 165.;;SAO;Sao Sebastiao;SP;11600000;BR;;;;-2.380029;-4.554794;SABRE_GDS
100433860;86620;Hotel Vermont Ipanema;HB;Rua Visconde De Piraja 254.;;RIO;RIO DE JANEIRO;RJ;22410000;BR;21-32025500;21-32025500;3.0;-2.298429;-4.320492;SABRE_GDS
102755177;608003;Hotel Vila Francesa;HB;Avenida Brasil 653;;REZ;Penedo;RJ;27530-190;BR;55243351-1155;;4.0;-22.441007;-44.525473;SABRE_GDS
100801509;321504;Vila Do Mar Natal;HB;Av Senador Dinarte Mariz 4223.;;NAT;Natal;RN;59090002;BR;55-84-40094999;55-84-40094944;4.0;-579.698;-3.518313;SABRE_GDS
100800375;316603;Hotel Dan Inn Curitiba Centro;HB;Rua Amintas De Barros 71;;CWB;Curitiba;PR;80060-205;BR;55-41-33228558;55-41-33228558;3.0;-2.542758;-49.265173;SABRE_GDS
102950471;614522;Aloe Vila Nova Conceicao;HB;Rua Jacques Felix 752;;CGH;Sao Paulo;SP;04509-002;BR;11913459779;;;-23.594677;-46.671904;SABRE_GDS
100658554;327652;Carmel Charme Resort;HB;;;FOR;AQUIRAZ;CE;61700000;BR;;;5.0;-394.368;-3.827658;SABRE_GDS
100417434;70229;Soft Win Hotel Sao Luis;HB;Rua 28 Quadra 21 N04 Lote 04.;;SLZ;SAO LUIS;MA;65077347;BR;;;2.0;-2.493265;-44.304769;SABRE_GDS
100400916;326002;Hotel Dan Inn Sao Jose Do Rio Preto;HB;R Xv De Novembro 3150;;SJP;Sao Jose Rio Preto;SP;15015110;BR;55-17-32115100;55-17-32115100;3.0;-2.081281;-4.938032;SABRE_GDS
100042810;169233;Hotel Crystal Londrina;HB;Rua Quintino Bocaiuva 15;;LDB;Londrina;PR;86020-150;BR;55-43-33151515;;4.0;-23.310897;-51.163905;SABRE_GDS
100041715;322579;Transamerica Executive Taboao;HB;;;GRU;Taboao da Serra;SP;6764045;BR;55-11-4771490;55-11-47714900;4.0;-2.361078;-4.676793;SABRE_GDS
100804599;308632;Riale Brisa Barra;HB;Av Lucio Costa 5700.;;RIO;RIO DE JANEIRO;RJ;22620172;BR;55-21-34336600;;4.0;-2.301239;-4.332033;SABRE_GDS
102444029;285890;Chateau La Villette Campos Do Jordao;HB;;;GRU;Campos Do Jordao;SP;12460000;BR;12 36631444;;4.0;-2.272962;-4.557622;SABRE_GDS
100353148;469397;Taua Grande Hotel De Araxa;HB;;;AAX;Araxa;MG;38184518;BR;;;4.0;-1.964328;-4.694873;SABRE_GDS
100565900;284298;Windsor Oceanico Hotel;HB;;;GIG;BARRA DA TIJUCA;RJ;22620220;BR;55-21-21959950;55-21-21955050;4.0;-2.301068;-4.332211;SABRE_GDS
100189390;397142;San Juan Business Sao Paulo;HB;R Aurora 909;;CGH;Sao Paulo;SP;01209001;BR;55 11 3556120;;3.0;-235.392;-467.724;SABRE_GDS
100028280;148343;Pousada Porto Praia;HB;Rua Villas Boas 161;;CFB;Arraial do Cabo;RJ;28930-000;BR;55-22-26226442;55-22-26226442;3.0;-2.297788;-4.202385;SABRE_GDS
102323405;606163;K Platz Hotel;HB;Av Cruz E Souza 25;;FLN;SAO JOSE;SC;88101-040;BR;55483771-1500;;4.0;-27.600677;-48.610976;SABRE_GDS
100588438;326785;Executive Arrey Hotel;HB;Rua Regeneracao 469;;THE;Teresina;PI;64001690;BR;8632166714;;3.0;-509.182;-4.279227;SABRE_GDS
100014166;123454;Hotel Torres Da Cachoeira;HB;Av Luiz Boiteux Piazza 3991;;FLN;Florianopolis;SC;88056-000;BR;55 48 32319800;55 48 32319800;4.0;-27.414925;-484.255;SABRE_GDS
100651365;392137;Slaviero Campina Grande;HB;R Jose Bernardino 97;;CPV;CAMPINA GRANDE;PB;58408027;BR;55-83-21019400;;4.0;-723.924;-3.586563;SABRE_GDS
100324925;326225;Hotel Cidade;HB;;Avelino Maia 3560;PSW;Passos;MG;37900001;BR;;;3.0;-2.072966;-4.661007;SABRE_GDS
100667800;613861;Vitoria Residence Newport;HB;Rua Santos Dummont 291;;VCP;Campinas;SP;13024020;BR;1937548000;;3.0;-22.892869;-47.056758;SABRE_GDS
100799157;169244;Pousada Aldeia Portuguesa;HB;Orla Maritima Br367 Km 17;;BPS;PORTO SEGURO;BA;45810-000;BR;55-73-36721133;55-73-36721133;3.0;-16.341752;-390.073;SABRE_GDS
100013496;122199;Cana Brava Resort Hotel;HB;;Km 24 Olivenca;IOS;ILHEUS;BA;45650-000;BR;55-23-32698000;55-23-32698032;4.0;-1.482039;-3.902654;SABRE_GDS
100000984;101356;Pousada Maria Farinha;HB;Rua Louro Amarelo 240.;;IOS;ITACARE;BA;45530-000;BR;55 73 32513515;55 73 32513515;3.0;-1.427909;-3.898898;SABRE_GDS
100802987;326173;Dall Onder Ski Hotel;HB;;;BGV;Garibaldi;RS;95720000;BR;;;3.0;-2.925197;-5.152102;SABRE_GDS
102466811;603791;Clara Ibiuna Resort;HB;Estm Cachoeira Km 12;;CGH;Ibiuna;SP;18150-000;BR;;;;-2.363079;-4.725237;SABRE_GDS
100688110;76867;Ritz Lagoa Da Anta;HB;;;MCZ;Maceio;AL;57038230;BR;82-2121-4000;82-2121-4123;4.0;-96.393;-3.569889;SABRE_GDS
100322838;454522;Go Inn Curitiba;HB;Rua Desembargador Motta 1221 B.;;CWB;Curitiba;;80250-060;BR;55-41-33404070;;3.0;-2.544313;-4.927739;SABRE_GDS
100464342;319437;Citi Hotel Premium;HB;Rua Professor Jose Leao 307;;REC;Caruaru;PE;55012610;BR;8130464699;;4.0;-827.852;-3.597086;SABRE_GDS
100281618;43331;Seara Praia Hotel;HB;Av Beira Mar 3080.;;FOR;Fortaleza;;60165121;BR;55-85-4011.2200;55-85-4011.2200;5.0;-372.608;-3.849506;SABRE_GDS
100151049;606292;Nacional Inn Guaruja;HB;;159 Jardim Asturias;CGH;Guaruja;SP;11420-200;BR;55133386-2929;;3.0;-24.005685;-46.270707;SABRE_GDS
100013490;122193;Boreas Apart Hotel;HB;Av Cesar Cals 1780;;FOR;FORTALEZA;CE;60182-000;BR;55-85-32654641;55 85 32654641;3.0;-373.361;-3.845832;SABRE_GDS
100194108;388869;Arcus Hotel Aracaju ( Ant. Comfort Aracaju);HB;;;AJU;Aracaju;SE;49035100;BR;;;;-1.097858;-3.704397;SABRE_GDS
100659756;122189;Bello Mare Hotel;HB;Rua Eng. Roberto Freire 3123.;;NAT;NATAL;RN;59090-000;BR;55-84-40064202;55-84-40064242;3.0;-587.276;-3.518004;SABRE_GDS
100687348;609737;Transamerica Executive Jardins;HB;Alameda Lorena 473;;CGH;SAO PAULO;SP;01424-000;BR;55113886-8400;;4.0;-23.570825;-46.658922;SABRE_GDS
100547284;313461;Hotel Emacite Flex;HB;;;QMF;Mafra;SC;89300-000;BR;55.47.3641.7700;55.47.3641.7700;3.0;-2.611064;-4.980432;SABRE_GDS
100820071;69674;Linx Hotel International Airport Galeao;HB;Avenida 20 De Janeiro.;;RIO;Rio de Janeiro;RJ;21941900;BR;;;3.0;-2.278628;-4.322783;SABRE_GDS
100413920;67209;Hotel Santorini;HB;Rua Itaoca 44;;VIX;VILA VELHA;ES;29102305;BR;55-27-3320-7955;;3.0;-203.728;-4.030491;SABRE_GDS
102326029;395992;Transamerica Fit Lafaiete;HB;Av Pref Telesforo Candido 935;;CNF;Conselheiro Lafaiete;MG;36400076;BR;31 4003 4642;;;-2.065805;-4.378497;SABRE_GDS
100611952;227337;Hotel Cullinan Hplus Premium;HB;Shn Quadra 04 Bloco E;;BSB;BRASILIA;DF;70704050;BR;55-61-34265000;55-61-34265001;4.0;-157.513;-4.778087;SABRE_GDS
100693508;310608;Venit Barra Hotel;HB;;;RIO;RIO DE JANEIRO;RJ;227750-040;BR;;;4.0;-2.297302;-4.339279;SABRE_GDS
102254963;392941;Grand Suites Family Resort By Atlantica;HB;Av Beira Lago 30;;XAP;Ita;SC;89760000;BR;55 49 31991620;;4.0;-2.728063;-523.228;SABRE_GDS
100443356;120743;Aram Natal Mar Hotel;HB;Av Senador Dinarte Mariz 8101.;;NAT;Natal;RN;59090002;BR;;;4.0;-586.064;-351.813;SABRE_GDS
100328786;604358;Hotel Flor De Minas;HB;;Cherem 1555;UBA;UBERABA;MG;38040-500;BR;;;3.0;-1.977475;-479.314;SABRE_GDS
100371149;327541;Transamerica Fit Serra;HB;;;VIX;Serra;ES;29164044;BR;1135314800;;3.0;-2.021573;-402.641;SABRE_GDS
100303228;322952;Oft Plaza Oeste Hotel;HB;Rua 2 389;;GYN;Goiania;GO;74110130;BR;;;3.0;-1.668072;-4.926747;SABRE_GDS
100649010;154218;Windsor Martinique Copacabana;HB;Rua Sa Ferreira 30;;GIG;Rio de Janeiro;;22071-100;BR;55-21-21955200;55-21-21955222;3.0;-2.298082;-4.319065;SABRE_GDS
100687350;29944;Transamerica Executive - Perdizes;HB;Rua Monte Alegre 835.;;CGH;Sao Paulo;SP;05014-000;BR;55-11-38661250;55-11-55471171;4.0;-23.536788;-46.669342;SABRE_GDS
100206576;318882;Flat Pousada Da Praia;HB;Av. Praia De Ponta Negra 895.;;NAT;Natal;RN;59094-100;BR;84-3086-0855;;2.0;-586.659;-3.518423;SABRE_GDS
100620046;309029;Green Hoteis Cabo Frio;HB;Av Teixeira E Souza 1056.;;CFB;CABO FRIO;RJ;2805100;BR;55-22-26456890;;;-2.288491;-4.202729;SABRE_GDS
102471655;603556;Zahara Hotel;HB;R Jose Jorge Rodrigues 469;;VCP;CAMPINAS;SP;13486-316;BR;;;;-225.498;-473.735;SABRE_GDS
102097801;328535;Samba Cabo Frio;HB;Avenida Assuncao 239;;CFB;CABO FRIO;RJ;28906200;BR;55-22-20400549;55-31-40038192;;-2.287556;-4.201176;SABRE_GDS
100440484;306275;Be Hotel;HB;Rua Monte Alegre 45.;;SAO;Sao Paulo;SP;05014000;BR;;;3.0;23.531213;46.747904;SABRE_GDS
100000994;101370;Hotel Via Dos Corais;HB;;Lts 05 06 E 0;SSA;Mata de Sao Joao;BA;48280-000;BR;55-71-36768000;55 71 36766800;4.0;-1.257583;-3.800709;SABRE_GDS
100322452;454321;Piemonte Hotel;HB;;;CNF;Nova Lima;MG;34000000;BR;55-31-32808500;;;-1.998733;-4.394552;SABRE_GDS
100000872;101191;Pajucara Praia Hotel;HB;Av. Dr. Antonio Gouveia 197;;MCZ;Maceio;AL;57030-170;BR;55-82-40091000;55 82 40091123;4.0;-9.671648;-35.716393;SABRE_GDS
100018670;135053;Resort Recanto Do Teixeira;HB;;837 Vicente Nunes;CPQ;Nazare Paulista;SP;12960-000;BR;55 11 3628 0699;55 11 3628 0699;3.0;-2.315951;-4.639494;SABRE_GDS
100155390;281451;Central Park Jardins;HB;Al Min Rocha Azevedo 523;;SAO;SAO PAULO;SP;01410-001;BR;;;3.0;-2.356239;-4.666026;SABRE_GDS
100806581;281458;Himmelblau Palace Hotel;HB;Rua Sete De Setembro 1415.;;BNU;Blumenau;SC;89010203;BR;0554730365800;0554730375345;4.0;-269.187;-4.906991;SABRE_GDS
100687354;29989;Transamerica Executive Bela Cintra;HB;Rua Bela Cintra 1356;;CGH;Sao Paulo;SP;01415-001;BR;55-11-3066-5000;55-11-30665015;4.0;-23.558;-4.666371;SABRE_GDS
100021099;320621;Intercity Ribeirao Preto;HB;Av Presidente Kennedy 1657.;;RAO;Ribeirao Preto;SP;14096-350;BR;55635144100;55635144100;4.0;-2.119704;-4.776421;SABRE_GDS
101008987;327937;Spot Hplus Long Stay;HB;;Lote 20;BSB;Brasilia;DF;71927540;BR;;;;-1.584455;-480.308;SABRE_GDS
100695010;318956;Hotel Riazor Plaza;HB;R Do Catete 160;;RIO;Rio de Janeiro;RJ;22220000;BR;02122250121;55 21 22250121;;-2.292628;-4.317678;SABRE_GDS
102776043;610799;Euro Suite Campos Do Jordao;HB;Avenida Emilio Ribas 100;;QJO;Campos Do Jordao;SP;12460-000;BR;55123663-7189;;;-22.724863;-45.576084;SABRE_GDS
100591492;123437;Hotel Porto Sol Ingleses;HB;Caminho Do Marisco 80;;FLN;Florianopolis;SC;88058-090;BR;55 48 32115908;55 48 32115911;;-2.743004;-4.839858;SABRE_GDS
100694160;84631;Holiday Inn Manaus;HI;Av. Rodrigo Otavio 3775.;;MAO;Manaus;AM;69073-177;BR;55-92-31820100;;3.0;-31.233;-599.817;SABRE_GDS
100611370;188881;Holiday Inn Belo Horizonte Savasssi;HI;Rua Prof. Morais 600;;CNF;Belo Horizonte;MG;30150-370;BR;55 31 3064 6555;55 31 3064 6555;4.0;-19.938514;-43.931541;SABRE_GDS
100201240;315996;San Marino Hotel;HQ;Avenida Getulio Vargas 3;;PNZ;Paulo Afonso;;48601-000;BR;;;3.0;-9.397652;-38.219472;SABRE_GDS
100201134;315945;Palace Hotel Primavera;HQ;Rua Santa Lucia 1208;;MGF;Nova Andradina;;79750-00;BR;;;;-22.251363;-53.350579;SABRE_GDS
100317030;351038;Prince Hotel;HQ;Rua Augusto Severo 154;;RAO;Ribeirao Preto;;14050-35;BR;;;3.0;-2.117187;-4.781428;SABRE_GDS
100128338;256748;Fortune Residence;HQ;Rua Haddock Lobo 804;;CGH;Sao Paulo;;01414-000;BR;;;;-23.559;-46.663;SABRE_GDS
100687524;356190;Sauipe Premium;HQ;Rodovia Ba099 Km76;;SSA;Mata de Sao Joao;;48280000;BR;;;5.0;-12.439454;-37.918439;SABRE_GDS
100773609;322298;Pousada Do Lago;HQ;200 Avda Das Mangueiras;;GIG;Itatiaia;;275980000;BR;;;;-22.440989;-44.522361;SABRE_GDS
100274652;322763;Opala Regente Hotel;HQ;Rua Regente Feijo 1408;;VCP;Campinas;SP;13013-05;BR;;;;-2.290225;-4.706181;SABRE_GDS
100804315;251311;Iracema Residence Flat;HQ;Av Beira Mar 4050 - Mucuripe.;;FOR;Fortaleza;;60165-121;BR;;;;-3.723348;-38.484583;SABRE_GDS
100103013;373469;Pousada Mar Aberto;HQ;Alameda Das Flores 2 -;;FEN;Fernando de Noronha;;53990-00;BR;;;3.0;-385.172;-3.242277;SABRE_GDS
100500356;350892;Hotel La Fontaine;HQ;Rua Joao Monlevade 495;;CNF;Ipatinga;;35162-37;BR;;;;-1.946136;-425.585;SABRE_GDS
100509126;322039;Gonzaga Flat;HQ;Rua Jorge Tibirica 41;;CGH;Santos;;11055-25;BR;;;2.0;-2.396932;-4.632997;SABRE_GDS
100773515;321799;Olympia Hotel;HQ;Av Pedro Jose Cardoso 349 -.;;CGH;Cubatao;;11500-00;BR;;;;-23.887593;-46.423856;SABRE_GDS
100200516;315640;Catuai;HQ;Avenida Castelo Branco 20507;;JPR;IndustrialCacoal;;76967-621;BR;;;;-114.364;-6.145947;SABRE_GDS
100525916;365067;Villa Real Hotel;HQ;;;JOI;Sao Francisco do Sul;;89240-000;BR;;;4.0;-262.303;-4.862718;SABRE_GDS
100244166;340879;Hotel 10 Joinville;HQ;Rua Dona Francisca 7173;;JOI;Zona Industrial Nort;;89219-600;BR;;;3.0;-2.625144;-4.887413;SABRE_GDS
100201034;315899;Grande Hotel Amparo;HQ;;Lisboa 33;VCP;Amparo;;13900-08;BR;;;;-2.270144;-4.676575;SABRE_GDS
100326456;379422;Apartamento Henrique Dumont;HQ;Henrique Dumont 85;;SDU;Rio de Janeiro;;22410-06;BR;;;;-2.298392;-4.321349;SABRE_GDS
100059200;192220;Pousada Dos Chas;HQ;Rua Francisco Gouvea 54;;FLN;Florianopolis;;88053-645;BR;;;3.0;-27.439;-48.485;SABRE_GDS
100382828;371644;Ville Hotel Gramadao;HQ;Avenida Jose Marao Filho 2794;;SJP;Votuporanga;;15502-045;BR;;;;-2.040444;-4.998338;SABRE_GDS
100011715;376077;Hotel Locatelli;HQ;Rua Almirante Barroso 112;;CXJ;Lajeado;;95913-140;BR;;;3.0;-2.945026;-5.196659;SABRE_GDS
101086700;237944;Baoba Hotel;HQ;Av Independencia 3249;;SJK;Taubate;;12032-000;BR;;;3.0;-23.046;-45.595;SABRE_GDS
100687824;331303;Hotel Bernal;HQ;Rua Vinte 1052;;UDI;Ituiutaba;;38300074;BR;;;2.0;-1.897286;-4.946391;SABRE_GDS
100205131;382543;Pousada Porto Verde;HQ;;;REC;Ipojuca;;55590-00;BR;;;3.0;-850.935;-3.500664;SABRE_GDS
100276131;341281;Alphapark Hotel;HQ;;;GYN;Goiania;GO;74884-527;BR;;;4.0;-1.670448;-4.920726;SABRE_GDS
100183579;320791;Pousada Reserva Penedo;HQ;Rua Alberto Joao Saad 99.;;GIG;Itatiaia;;27598-00;BR;;;4.0;-2.244094;-4.451952;SABRE_GDS
100058058;190145;Pousada Palmeiras;HQ;Rua Xarelete 17.;;NVT;Bombinhas;;88215-00;BR;;31848834100;3.0;-2.714772;-4.848076;SABRE_GDS
100372098;373597;Petropolis Inn;HQ;Rua Vinte E Nove De Junho 491;;SDU;Petropolis;;25655-09;BR;;;3.0;-225.158;-4.319371;SABRE_GDS
100058368;190633;Golden Star Hotel;HQ;Mariano Torres 135;;BFH;Curitiba;;80060-120;BR;;;3.0;-25.428;-49.264;SABRE_GDS
100200484;315625;Delcas Fast Hotel;HQ;R Manoel Dionisio Sobrinho 49s.;49-s;TSQ;Tangara da Serra;MT;78300-00;BR;55 65 3339-1900;55 65 3339-1900;;-14.623394;-57.492032;SABRE_GDS
100372690;360604;Maestro Premium Cascavel;HQ;Rua Mal Candido Rondon 2102;;CAC;Cascavel;PR;85901-070;BR;;;4.0;-2.495602;-5.346438;SABRE_GDS
100205342;318104;Hyatt Place Macae;HY;Avenida Atlantica 1300.;;GIG;Macae;RJ;27920-390;BR;55 22 2200 1234;55 22 2200 1235;4.0;-2.239834;-4.178942;SABRE_GDS
100156116;281909;Grand Hyatt Rio De Janeiro;HY;Av. Lucio Costa 9600.;;GIG;Rio de Janeiro;RJ;22795-007;BR;55-21-37966872;55-21-37971200;5.0;-2.301055;-4.337161;SABRE_GDS
100368385;314405;Jw Marriott Hotel Sao Paulo;MC;Av Das Nacoes Unidas 14 401;;GRU;Sao Paulo;SP;04794-000;BR;55-11-2526-0100;55-11-2526-0101;5.0;-23.624996;-46.706937;SABRE_GDS
100570250;52540;Innside Sao Paulo Itaim;ME;Rua Jesuino Arruda 806;;CGH;Sao Paulo;;04532-082;BR;55-11-37044400;55-11-3704 4401;4.0;-2.358301;-4.667818;SABRE_GDS
102619835;607153;Oyo Hotel L Espace Jaragua;OY;R.boaventura 231;;PLU;Belo Horizonte;MG;30110039;BR;55-11-54710400;;;-19.869854;-43.950032;SABRE_GDS
102683857;607576;Oyo Hotel Lindoia Petropolis;OY;53 Rua Marechal;;SDU;Petropolis;RJ;25610-081;BR;55-11-54710400;62-800-6967666;;-22.506673;-43.168958;SABRE_GDS
102326719;606967;Oyo Pousada Parana Cuiaba;OY;970 Rua Oslo Despraiado;;CGB;Cuiaba;MT;78048000;BR;55-11-5043-7185;;;-1.557726;-56.090166;SABRE_GDS
100611950;216460;Quality Inn And Suites Brasilia;QI;Lote 02 Tencho 03.;;BSB;Brasilia;DF;71215-300;BR;55-61-2196-6090;55-61-2196-6090;4.0;-1.583622;-479.516;SABRE_GDS
100204826;318028;Ramada Encore Sao Paulo;RA;Avenida Tiradentes 826;;CGH;Sao Paulo;SP;01102;BR;55-11-47500100;11-4005-1006;;-2.352853;-466.311;SABRE_GDS
100201900;316330;Novotel Sorocaba;RT;;;VCP;SOROCABA;SP;18048110;BR;55-015-35001850;;4.0;-2.353142;-4.746496;SABRE_GDS
100397782;56036;Ibis Navegantes Itajai;RT;R. Vereador Abrahao J F 587;;NVT;ITAJAI;SC;88302101;BR;55-47-32496800;55-47-32496801;3.0;-2.691435;-486.573;SABRE_GDS
101045070;387892;Ibis Ribeirão Preto Vila Do Golf;RT;Av Luiz Eduardo Tol Prado 780;;RAO;RIBEIRAO PRETO;AC;14027250;BR;0;0;3.0;-212.351;-4.783672;SABRE_GDS
100024986;144258;Mercure Rj Nova Iguacu;RT;Av Doutor Mario Guimaraes 520;;GIG;NOVA IGUACU;RJ;26255230;BR;55-21-32578500;55-21-32578539;;-22.759087;-43.457027;SABRE_GDS
100077692;21622;Ibis Sao Paulo Expo;RT;Rua Eduardo Viana 163.;;CGH;SAO PAULO;SP;01133040;BR;55-11-33937300;55-11-33937374;3.0;-2.351883;-4.665456;SABRE_GDS
100390022;50840;Mercure Camboriu;RT;Av Atlantica 2010.;;NVT;BALNEARIO CAMBORIU;SC;88330012;BR;55-47-30569500;55-47-30569500;3.0;-2.698749;-4.863255;SABRE_GDS
100621648;317729;Ibis Styles Tres Rios;RT;Rua Quinze De Novembro-340.;;GIG;TRES RIOS;RJ;25804000;BR;55-08007037000;55-08007037000;3.0;-2.211559;-4.321171;SABRE_GDS
100156932;282415;Ibis Rj Nova America;RT;;;GIG;RIO DE JANEIRO;RJ;20765-630;BR;55-21 3282-2300;55-21 3184-6162;3.0;-2.288026;-4.326938;SABRE_GDS
100597276;108660;Ibis Styles Belem Batista Campos;RT;;;BEL;BELEM;PA;66015200;BR;55-9133422121;;3.0;-145.805;-4.849193;SABRE_GDS
100403044;59534;Ibis Goiania;RT;Rua 21 No 154.;;GYN;GOIANIA;GO;74120120;BR;55-62-27656050;55-62-27656051;3.0;-1.669036;-4.926298;SABRE_GDS
100182414;305001;Ibis Arapiraca;RT;;145 A;MCZ;ARAPIRACA;AC;57300590;BR;55-82-34825600;55-82-34825600;3.0;-974.879;-3.666363;SABRE_GDS
101073902;600464;Ibis Styles Maceio Pajucara;RT;Av Doutor Antonio Gouveia 1020;;MCZ;MACEIO;AL;57030170;BR;55 11 99347 3750;;;-966.594;-3.571125;SABRE_GDS
100185348;307068;Ibis Santos Valongo;RT;;;SSZ;SANTOS;SP;11010320;BR;13-33289300;13-33289300;3.0;-23.931257;-46.338025;SABRE_GDS
100192568;311436;Ibis Styles Parauapebas;RT;Rod Pa 275;;CKS;PARAUAPEBAS;PA;68515000;BR;55-9433116000;55-9433116000;3.0;-6.078058;-49.886783;SABRE_GDS
100655739;325021;Ibis Styles Itauna;RT;Rua Silvio De Matos 177;;CNF;ITAUNA;MG;35680360;BR;55-8007037000;;3.0;-200.756;-4.458498;SABRE_GDS
100397534;55872;Mercure Sao Paulo Vila Olimpia Hotel;RT;Rua Santa Justina 210;;GRU;SAO PAULO;SP;04545041;BR;55-11-30896222;55-11-30896243;4.0;-2.359492;-4.667539;SABRE_GDS
100044300;174277;Ibis Sertaozinho;RT;Rua Fioravante Sicchieri 100;;GRU;SERTAOZINHO;SP;14179560;BR;55-16-21059191;55-16-21059191;3.0;-2.114732;-479.915;SABRE_GDS
100065070;204074;Ibis Foz Do Iguacu;RT;Rua Almirante Barroso 866;;IGU;FOZ DO IGUACU;PR;85851010;BR;55-45-34223300;55-45-34223314;3.0;-2.554789;-5.458511;SABRE_GDS
100397816;56054;Ibis Manaus Distrito Industrial;RT;Avenida Mandii 04.;;MAO;Manaus;;69075-140;BR;55-92-21236234;55-92-36136235;;-312.897;-5.998268;SABRE_GDS
102251007;390573;Ibis Caucaia Porto Do Pecém;RT;Rodovia Estruturante Ce 085;Km 27 Grilo;FOR;Caucaia;CE;61637012;BR;;0;3.0;-364.233;-3.881947;SABRE_GDS
100212850;35037;Ibis Styles Curitiba Centro Civico;RT;Rua Mateus Leme 358.;;CWB;CURITIBA;PR;80510190;BR;55-41-33240469;55-41-33233404;3.0;-2.542485;-4.927136;SABRE_GDS
102959525;615029;Ibis Votuporanga;RT;Avenida Nasser Marao 3773;;SJP;VOTUPORANGA;AC;15504000;BR;;;;-2.041322;-49.960353;SABRE_GDS
100388178;389513;Ibis Uberlandia;RT;;1590 A;UDI;UBERLANDIA;MG;38408100;BR;;;3.0;-1.891253;-4.825941;SABRE_GDS
100219568;39211;Ibis Ribeirao Preto Shopping;RT;Av. Braz Olaia Acosta 691.;;RAO;RIBEIRAO PRETO;SP;14026040;BR;55-16-21012950;55-16-21012959;3.0;-2.121599;-4.782298;SABRE_GDS
100163746;286560;Ibis Guarapuava;RT;Av Prof Laura P Bastos 413;;CWB;GUARAPUAVA;PR;85010000;BR;55 11 99347-3750;;4.0;-2.538475;-5.145154;SABRE_GDS
102960251;614743;The Westin Sao Paulo;WI;Rua Ibiate 86;Sao Paulo Brazil 04530 040;GRU;Sao Paulo;SP;04530 040;BR;55-11-3512-5200;;;-23.584645;-46.671601;SABRE_GDS
101009885;327587;Vivence Suítes Hotel Palmas;WV;Quadra 201sul Rua Nsa Lote13;Conj 01 Plano Diretor;PMW;Palmas;AC;77015200;BR;55-63-32155550;55-63-32155551;3.0;-10.249091;-48.324286;SABRE_GDS
100605716;285197;Portobay Buzios;WV;Rua Dos Coqueiros10 Brava;;BZC;Buzios;AC;28950-400;BR;55 21 23911800;55-22-2623-5293;4.0;-2.274696;-4.197416;SABRE_GDS
100408792;322285;Janeiro Hotel;WV;Avenida Delfim Moreira 696;;SDU;Rio de Janeiro;RJ;22431-000;BR;55-21-21721001;55-21-21721001;;-2.298856;-4.322752;SABRE_GDS
100566062;15192;Wyndham Rio Barra;WY;Av Lucio Costa 3150;;GIG;Rio de Janeiro;RJ;22630-010;BR;55 21 3139-8000;00 00 0000-0000;;-2.301124;-4.332672;SABRE_GDS
100526396;40670;Wyndham Sao Paulo Ibirapuera;WY;Av Ibirapuera 2927;;CGH;Sao Paulo;SP;04029-200;BR;55-11-50912330;55-11-50912330;;-23.609074;-46.666229;SABRE_GDS
100677646;139170;Wyndham Foz Do Iguacu;WY;Rui Barbosa 394 Centro;;IGU;Foz do Iguacu;;85851 170;BR;;;4.0;-2.553825;-5.458901;SABRE_GDS
102543625;605720;Wyndham Salvador;WY;13223 Luis Viana Filho Ave;;SSA;Salvador;AC;41500-300;BR;55-0800-5558844;;4.0;-1.291996;-3.835493;SABRE_GDS
100561952;165579;Windsor Copa Hotel;YX;Av Nossa Senhora De 335;;GIG;Rio de Janeiro;RJ;22020-002;BR;55-21-21955300;55-21-21955330;3.0;-2.296707;-4.318014;SABRE_GDS
100254737;226346;Pousada Pedra Da Ilha;YX;Rua Abraao Francisco 46.;;NVT;Penha;;88385000;BR;55-47-33450542;55-47-33450542;3.0;-2.677229;-4.865881;SABRE_GDS
100804065;308112;Zii Hotel Pouso Alegre;YX;Rodovia Br 459 Km 107.;;GRU;Pouso Alegre;MG;37550-000;BR;55-35-34273380;55-35-34273380;3.0;-22.242825;-45.855973;SABRE_GDS
100310696;349232;Letto Hotel Flores Da Cunha;YX;Rua John Kennedy No 1031;;CXJ;Flores da Cunha;RS;95270-000;BR;55-051-40424346;55-051-40424346;4.0;-2.902903;-5.116875;SABRE_GDS
100580630;313901;Blue Tree Premium Manaus;YX;Av Umberto Calderaro Filho 817;;MAO;MANAUS;AM;69057021;BR;55-92-33032000;55-92-33032000;;-31.102;-6.001043;SABRE_GDS
100682960;315857;Hotel Wz Jardins;YX;Av Reboucas 955;;GRU;Sao Paulo;;05401-100;BR;55-11-30690000;55-11-30690000;4.0;-2.355985;-4.667105;SABRE_GDS
100603220;210529;Intercity Marinas Joao Pessoa;YX;Av Cabo Branco 1116 .;;JPA;JOAO PESSOA;PB;58045010;BR;55-83-30488888;55-83-30488888;;-712.345;-3.482391;SABRE_GDS
100641168;321744;Porto Seguro Eco Bahia Hotel;YX;Rua Antonio Ricaldir 177;;BPS;Porto Seguro;BA;45810000;BR;55-73-32882318;55-73-32882318;3.0;-1.659454;-3.910065;SABRE_GDS
100685952;86343;Brisamar Hotel Sao Luis;YX;Av Sao Marcos 12.;;SLZ;Sao Luis;MA;65077-310;BR;55-98-23121212;55-98-32359177;3.0;-2.491092;-44.305359;SABRE_GDS
100204408;317589;Laghetto Stilo Barra Rio;YX;Rua Marcelo Roberto 65;;GIG;Rio de Janeiro;RJ;22630190;BR;55-21-3509-9000;55-21-35099000;;-2.300943;-4.335318;SABRE_GDS
100526400;82020;Transamerica Classic - Opera;YX;Alameda Lorena 1748;;GRU;SAO PAULO;;01424-002;BR;55-11-30622666;55-11-55471171;;-2.356244;-4.666743;SABRE_GDS
100272580;428308;All Inn Sorocaba;YX;;Reinaldo Mendes 3541;VCP;Sorocaba;SP;18013-280;BR;55-15-30321400;55-15-30321400;4.0;-2.346952;-4.742396;SABRE_GDS
100515204;142308;Hotel Express Maua;YX;Rua Julio De Castilhos 342;;POA;Porto Alegre;RS;90030-130;BR;55-51-30291000;55-51-30291000;3.0;-3.002521;-5.122371;SABRE_GDS
100025552;144825;Barra Do Piuva Porto Hotel;YX;Av Brasil 1140;;GRU;Ilha Bela;;11630;BR;55-12-38949415;55-12-38949427;4.0;-2.382781;-4.538534;SABRE_GDS
100048338;1792;Hotel Fasano Boa Vista;YX;;Km 102.5;GRU;Porto Feliz;SP;18540000;BR;55-15-32619900;55-15-32619901;5.0;-2.333879;-4.754132;SABRE_GDS
100604352;18523;Windsor Excelsior Hotel;YX;Avenida Atlantica 1800;;SDU;Rio de Janeiro;RJ;22021-030;BR;055-21-21955800;055-22-22571850;4.0;-2.296809;-431.796;SABRE_GDS
102260065;324431;Hotel Contemporaneo;YX;Avenida Royal Palm Plaza 180;Avenida Royal Palm Plaza 180;VCP;CAMPINAS;SP;13051092;BR;55-19-21172200;55-19-21172200;4.0;-2.293816;-470.731;SABRE_GDS
100178018;296297;Naoum Hotel;YX;Shs Qd 03 Bloco J.;;BSB;BRASILIA;DF;70322905;BR;55-61-32124545;55-61-32124549;;-15.794207;-47.888824;SABRE_GDS
100298588;323288;Ville Celestine Hotel;YX;Rua Guaicui 596;;CNF;Belo Horizonte;MG;30380342;BR;55-31-36149900;55-31-361499000;;-1.994734;-4.395447;SABRE_GDS
100566906;28574;Estanplaza Berrini;YX;853 Engenheiro Luis Carlos Ber;;GRU;SAO PAULO;SP;04571-010;BR;55-11-55098900;55-11-5509-8909;4.0;-23.604;-4.669222;SABRE_GDS
100391782;52029;Deville Prime Porto Alegre;YX;Av Dos Estados 1909;;POA;Porto Alegre;RS;90200-001;BR;55-51-33735000;55-41-32194007;;-2.998055;-5.117916;SABRE_GDS
100424358;77155;Hotel Deville Business Maringa;YX;Av Herval 26;;MGF;Maringa;;87013-110;BR;55-44-32216700;55-44-32216725;4.0;-2.342694;-5.194308;SABRE_GDS
100086342;225902;Deville Prime Campo Grande;YX;Avenida Mato Grosso 4250.;;CGR;Campo Grande;MS;79002232;BR;55-67-21064600;55-67-21064610;5.0;-2.044834;-5.457247;SABRE_GDS
100184392;30631;Hotel Deville Express Cascavel;YX;Br 277 Km 588;;CAC;Cascavel;;85803-650;BR;55-45-32273030;55-45-32272190;3.0;-2.497621;-5.345935;SABRE_GDS
100157057;394125;Voa Pousada Agua Eterna;YX;;;SJP;OlImpia;SP;15400 000;BR;55-17-32816145;55-17-32816145;3.0;-2.074022;-489.131;SABRE_GDS
100079036;218249;Hotel Dan Inn Sorocaba;YX;Av Dr Afonso Vergueiro 1850;;CPQ;Sorocaba;SP;18040-00;BR;55-15-34125100;55-15-34125100;3.0;-2.349726;-4.746887;SABRE_GDS
100016219;323363;Mardan Hotel;YX;Rua Rio Azul 115;;CKS;PARAUAPEBAS;PA;68515000;BR;55-94-33111020;55-94-33111021;3.0;-607.521;-4.988803;SABRE_GDS
100814707;41233;Hotel Deville Express Curitiba;YX;Rua Amintas De Barros 73.;;CWB;Curitiba;;80060-205;BR;55-41-33228558;55-41-33228558;;-2.542777;-4.926556;SABRE_GDS
100647106;309378;Hope Town Inn And Marina;WV;;;MHH;Abaco;;0000;BS;1-242-3660003;1-242-3660003;4.0;26.537994;-76.962109;SABRE_GDS
100191196;31069;Sandyport Beach Resort;XT;1 N Sandyport Dr West Bay St.;;NAS;Nassau;;00000;BS;1-242-3274279;1-242-3275612;;25.076442;-77.429233;SABRE_GDS
102853745;611446;Lemon Tree Resort Thimphu Bhutan;UI;;;PBH;Thimphu;;11001;BT;975-87-904 47892;;;27.505617;89.646835;SABRE_GDS
100082576;221323;Town Lodge Gaborone;CG;;;GBE;Gaborone;;1676;BW;267-316-0490;267-316-1390;;-24.606312;25.929049;SABRE_GDS
100198556;314548;Indaba Lodge Hotel Gaborone;FG;1 Tlokweng Road;;GBE;Gaborone;;00000;BW;267-399-9500;267-399-9501;3.0;-2.467253;2.592455;SABRE_GDS
100758517;322748;Room50two;OK;;;GBE;Gaborone;;0000;BW;267-397-5557;;3.0;-24.656;2.590158;SABRE_GDS
100798953;166684;Protea Hotel Gaboron Masa Square;PR;;Cnr 1st And Qestern Avenue;GBE;Gaborone;;09267;BW;267-3-159954;267-3-3915713;3.0;-24.655319;25.908728;SABRE_GDS
100188312;309014;Doubletree By Hilton Minsk;HL;9 Pobediteley Avenue;;MSQ;Minsk;;;BY;375-17-309 80 00;375-17-309 80 01;;5.390851;27.548917;SABRE_GDS
100183588;305698;Minsk Marriott Hotel;MC;20 Pobediteley Avenue.;;MHP;Minsk;;220020;BY;375-17-2793000;375-17-2793100;5.0;53.933731;27.508774;SABRE_GDS
100271525;381250;Agat Hotel;ST;Karbyshava 25;;MSQ;MINSK;;220119;BY;00375-17-3699936;00375-17-2678427;3.0;53.889288;28.034196;SABRE_GDS
100085688;392667;Beijing Hotel Minsk;WV;36 Krasnoarmeyskaya Street;;MSQ;Minsk;;220030;BY;375-17-3297777;375-17-3297777;4.0;53.900601;27.558972;SABRE_GDS
100194976;312729;Byg Hotel;YX;2 Lenina Street;;BQT;Brest;;224005;BY;375-162-209059;375-162599992;;5.209705;2.368156;SABRE_GDS
102467405;608384;The Watermark Hotel;GD;1-4 Mile;;SPR;San Pedro;;00000;BZ;501-855-2033011;;4.0;17.921225;-87.961365;SABRE_GDS
100141160;26668;Ramada Belize City Princess;RA;;;BZE;Belize City;;00000;BZ;501-2232670;501-2232660;3.0;1.750525;-8.818833;SABRE_GDS
100145346;270959;Almond Beach Resort At Jaguar Reef;WV;;;BZE;Stann Creek;;00000;BZ;501-822-3851;501-822-3851;3.0;16.965353;-88.220615;SABRE_GDS
100187716;308590;Beausejour Hotel Appartements 4;AC;440 Roy Avenue;;YUL;DORVAL;QC;H9S3E1;CA;1 514 576 3370;1 514 636 5002;1.0;4.544694;-7.374852;SABRE_GDS
100251216;416694;La Cache A Maxime;AC;265 Rue Drouin;;YQB;SCOTT;QC;G0S 3G0;CA;1 418 387 5060;;4.0;46.505513;-71.056024;SABRE_GDS
100020392;137821;Hotel Chez Swann;AC;1444 Rue Drummond;;YUL;MONTREAL;QC;H3G 1V9;CA;15.148.427.070;18.663.632.444;4.0;45.499407;-73.575903;SABRE_GDS
100168592;612171;Hotel Baie Saint Paul;AC;8 Chemin Du Golf;;YML;BAIE SAINT PAUL;QC;G3Z 1X6;CA;1 418 435 3683;;3.0;47.440736;-70.519575;SABRE_GDS
100181626;388368;L Empress;AC;360 Montee Industrielle;;YBG;RIMOUSKI;QC;G5M 1X1;CA;001 418 723 6944;;3.0;48.458014;-68.496953;SABRE_GDS
100312806;383001;Du Parc;AC;167 Rue Bosse;;YQB;SAGUENAY;QC;G7J 1L5;CA;1 418 543 0003;;;48.424429;-7.107442;SABRE_GDS
